StationID,FromDate,ToDate,Stations,Latitude,Longitude,StationName,State
1,19370101,19860630,478,47.8413,8.8493,Aach,Baden-Wrttemberg
3,18910101,20110331,202,50.7827,6.0941,Aachen,Nordrhein-Westfalen
44,19710301,20190202,44,52.9336,8.237,Groﬂenkneten,Niedersachsen
52,19730101,20011231,46,53.6623,10.199,Ahrensburg-Wulfsdorf,Schleswig-Holstein
61,19750701,19780831,339,48.8443,12.6171,Aiterhofen,Bayern
70,19730601,19860930,712,48.2052,9.0371,Albstadt-Ebingen,Baden-Wrttemberg
71,19861101,20190202,759,48.2156,8.9784,Albstadt-Badkap,Baden-Wrttemberg
72,19781001,19950531,794,48.2766,9.0001,Albstadt-Onstmettingen,Baden-Wrttemberg
73,19590301,20190202,340,48.6159,13.0506,Aldersbach-Kriestorf,Bayern
78,19610101,20190202,65,52.4853,7.9126,Alfhausen,Niedersachsen
91,19781101,20190202,300,50.7446,9.345,Alsfeld-Eifa,Hessen
93,19771201,19781031,269,50.7691,9.2542,Alsfeld-Reibertenrod,Hessen
98,19470101,19541231,780,51.189,8.4671,Altastenberg,Nordrhein-Westfalen
102,19980101,20190202,32,53.8633,8.1275,Leuchtturm Alte Weser,Niedersachsen
106,19730101,19960229,500,51.7976,10.4429,Altenau,Niedersachsen
116,19470101,19730531,213,50.9833,12.4333,Altenburg,Th-ringen
125,20000702,20190202,756,47.8342,10.8667,Altenstadt,Bayern
129,19910101,20061231,33,53.6893,13.242,Altentreptow,Mecklenburg-Vorpommern
131,20041101,20190202,296,51.0881,12.9326,Geringswalde-Altgeringswalde,Sachsen
132,19531211,19870930,750,49.7725,12.3891,Altglash-tte,Bayern
142,19550101,20190202,510,48.406,11.3117,Altom-nster-Maisbrunn,Bayern
150,19510101,20190202,215,49.7273,8.1164,Alzey,Rheinland-Pfalz
151,19470101,20190202,383,49.4691,11.8546,Amberg-Unterammersricht,Bayern
154,19940101,20190202,515,48.0197,12.2924,Amerang-Pfaffing,Bayern
161,20110901,20190202,75,50.4237,7.4202,Andernach,Rheinland-Pfalz
164,19470101,20190202,54,53.0316,13.9908,Angerm-nde,Brandenburg
167,20040901,20190202,9,53.8412,13.6846,Anklam,Mecklenburg-Vorpommern
169,19470101,19661231,630,50.573,13.0053,Annaberg-Buchholz,Sachsen
172,19690501,19911130,395,52.2486,9.5056,Annaturm,Niedersachsen
174,19840301,19871231,250,49.1886,7.9766,Annweiler-Bindersbach,Rheinland-Pfalz
175,19520101,19760430,413,49.2964,10.5751,Ansbach,Bayern
176,19760601,19951130,481,49.2475,10.5826,Ansbach-Claffheim,Bayern
177,19470501,19571031,418,49.3158,10.5815,Ansbach-Hennenbach,Bayern
183,19470101,20190202,42,54.6792,13.4343,Arkona,Mecklenburg-Vorpommern
184,19470101,19660630,55,52.6769,12.0077,Arneburg,Sachsen-Anhalt
185,19460101,19571231,3,54.6289,9.9294,Arnis,Schleswig-Holstein
186,19470101,19980930,218,51.3773,8.0713,Arnsberg,Nordrhein-Westfalen
191,19860401,20190202,220,49.9695,9.9113,Arnstein-M-desheim,Bayern
193,19680101,19971031,232,51.3845,9.082,Arolsen-Neu Berich,Hessen
198,19540101,20190202,164,51.3745,11.292,Artern,Th-ringen
202,19470101,19511231,110,49.9778,9.1114,Aschaffenburg,Bayern
207,19470101,19641231,105,51.7498,11.4667,Aschersleben,Sachsen-Anhalt
211,19810901,19991231,200,50.58,8.4685,Aﬂlar Klein-Altenst-dten,Hessen
217,19410101,20190202,672,47.8774,11.3642,Attenkam,Bayern
221,19850801,19900531,483,48.5515,11.7117,Au i.d.Hallertau-G-nzenhausen,Bayern
222,19770101,20190202,387,50.5907,12.714,Aue,Sachsen
231,19010101,19740430,490,48.3723,10.8948,Augsburg (Sankt Stephan),Bayern
232,19470101,20190202,461,48.4254,10.942,Augsburg,Bayern
243,19580901,20061231,4,53.4621,7.467,Aurich,Niedersachsen
257,19490101,20190202,240,48.727,8.2458,Baden-Baden-Geroldsau,Baden-Wrttemberg
259,19470101,20190202,273,47.8064,7.6387,M-llheim,Baden-Wrttemberg
268,19540101,19961231,622,48.5293,8.2727,Baiersbronn-Obertal,Baden-Wrttemberg
273,19861201,19900430,467,47.8413,9.6606,Baindt,Baden-Wrttemberg
282,19490101,20190202,240,49.8742,10.9206,Bamberg,Bayern
283,19480101,19591231,382,49.8808,10.8695,Bamberg-Altenburg,Bayern
284,18790101,19581231,282,49.88,10.88,Bamberg (Sternwarte),Bayern
288,19910101,19980831,3,53.8409,13.7549,Bargischow-Gnevezin,Mecklenburg-Vorpommern
294,19920201,20190202,110,52.3199,9.43,Barsinghausen-Hohenbostel,Niedersachsen
298,19470101,20190202,3,54.3406,12.7108,Barth,Mecklenburg-Vorpommern
303,19980101,20190202,55,52.0614,13.4996,Baruth,Brandenburg
314,19450606,20190202,232,51.1604,14.5042,Kubsch-tz Kr. Bautzen,Sachsen
320,19470101,20190202,350,49.9667,11.5197,Heinersreuth-Vollhof,Bayern
321,19790101,19951031,789,47.6797,12.0017,Bayrischzell,Bayern
326,20040701,20130707,120,51.7204,8.0577,Beckum-Unterberg,Nordrhein-Westfalen
327,19620901,19961031,27,53.6234,8.8323,Bederkesa,Niedersachsen
330,19370101,20190202,450,49.5617,8.9673,Oberzent-Beerfelden,Hessen
335,19761201,19771031,4,54.3426,10.6018,Behrensdorf,Schleswig-Holstein
342,20101201,20190202,103,52.317,8.1694,Belm,Niedersachsen
348,19900101,20110831,127,50.4135,7.5886,Bendorf,Rheinland-Pfalz
355,19470101,19891031,140,49.6789,8.6276,Bensheim,Hessen
361,19480101,19981231,550,47.6344,13.0109,Berchtesgaden (KKst),Bayern
365,19911001,20020930,421,49.3311,11.4303,Berg-Oberpfalz,Bayern
368,20000701,20190202,70,52.8152,9.9248,Bergen,Niedersachsen
377,19470101,20190202,210,49.107,7.9967,Bergzabern Bad,Rheinland-Pfalz
379,20170901,20190202,303,50.9074,11.2665,Berka Bad (Flugplatz),Th-ringen
386,19730701,19861130,445,51.0454,8.3851,Berleburg Bad,Nordrhein-Westfalen
390,19861201,20190202,610,50.9837,8.3683,Berleburg Bad-St-nzel,Nordrhein-Westfalen
395,19480701,19531231,38,52.4167,13.4833,Berlin-Adlershof,Berlin
399,19810101,20150629,36,52.5198,13.4057,Berlin-Alexanderplatz,Berlin
400,19610101,20190202,60,52.6309,13.5022,Berlin-Buch,Berlin
402,18760101,19621231,55,52.4564,13.2997,Berlin-Dahlem (LFAG),Berlin
403,19500101,20190202,51,52.4537,13.3017,Berlin-Dahlem (FU),Berlin
405,19510401,19541231,37,52.45,13.65,Berlin-Friedrichshagen,Berlin
407,19580101,19780331,48,52.6461,13.2858,Berlin-Frohnau,Berlin
408,19481201,19511130,35,52.5333,13.3833,Berlin-Invalidenstraﬂe,Berlin
410,19960601,20181209,33,52.404,13.7309,Berlin-Kaniswall,Berlin
416,19820701,19960930,47,52.4069,13.4127,Berlin-Lichtenrade,Berlin
417,19360101,19561031,43,52.4144,13.3036,Berlin-Lichterfelde (S-d),Berlin
420,19930501,20190202,60,52.5447,13.5598,Berlin-Marzahn,Berlin
422,19560101,19641231,35,52.5333,13.3833,Berlin-Mitte,Berlin
424,19540101,19801231,36,52.5,13.4667,Berlin-Ostkreuz,Berlin
425,19590101,19820630,38,52.4044,13.4838,Berlin-Rudow,Berlin
427,19670101,20190202,46,52.3807,13.5306,Berlin-Sch-nefeld,Brandenburg
429,19861001,19870131,32,52.5667,13.1694,Berlin-Spandau,Berlin
430,19630101,20190202,36,52.5644,13.3088,Berlin-Tegel,Berlin
432,19780401,19941231,36,52.6044,13.2952,Berlin-Tegeler Fliesstal,Berlin
433,19480101,20190202,48,52.4675,13.4021,Berlin-Tempelhof,Berlin
434,19470101,19601231,35,52.4553,13.4699,Berlin-Treptow,Berlin
435,19640101,20061231,45,52.4289,13.2327,Berlin-Zehlendorf,Berlin
445,18980101,20190202,84,51.8218,11.7109,Bernburg-Saale (Nord),Sachsen-Anhalt
450,19450101,20121204,120,49.9186,7.0664,Bernkastel-Kues,Rheinland-Pfalz
458,19750101,19880331,185,50.0699,7.0306,Bertrich Bad,Rheinland-Pfalz
460,19510101,20190202,363,49.264,6.6868,Berus,Saarland
474,19590101,19860930,599,48.1252,9.7639,Warthausen-Birkenhard,Baden-Wrttemberg
480,19450101,20061231,296,50.9275,8.4935,Biedenkopf-Wallau,Hessen
502,19670801,20061231,412,49.8747,9.4883,Bischbrunn,Bayern
508,19940401,20101231,675,50.0539,11.8149,Bischofsgr-n,Bayern
524,19470101,19921231,80,51.6333,12.3167,Bitterfeld,Sachsen-Anhalt
526,19510101,19751231,254,50.6738,11.2805,Blankenburg Bad,Th-ringen
535,19470101,20190202,417,50.0372,7.3079,Blankenrath,Rheinland-Pfalz
550,19940501,20020930,344,50.9041,11.7985,Bobeck,Th-ringen
553,19540101,19740831,25,51.838,6.6107,Bocholt (Marienschule),Nordrhein-Westfalen
554,19470101,20060228,23,51.8293,6.5365,Bocholt-Liedern (Wasserwerk),Nordrhein-Westfalen
555,19400101,20181031,101,51.4789,7.2697,Bochum,Nordrhein-Westfalen
570,19790101,19811231,648,49.0768,13.0765,Bodenmais-Mais,Bayern
576,19870801,20031231,445,48.6759,8.9732,B-blingen,Baden-Wrttemberg
578,19510301,19661231,379,48.9451,11.3667,B-hming,Bayern
588,19920501,19960731,105,51.752,9.3953,Boffzen,Niedersachsen
591,19470101,20190202,45,53.3911,10.6878,Boizenburg,Mecklenburg-Vorpommern
592,19460101,19621231,10,53.8634,9.7344,Bokel,Schleswig-Holstein
594,19930101,20000229,425,48.6407,9.6136,Boll Bad (KKst),Baden-Wrttemberg
596,19470101,20190202,15,54.0028,11.1908,Boltenhagen,Mecklenburg-Vorpommern
598,19490101,19570831,62,50.7285,7.0839,Bonn,Nordrhein-Westfalen
599,19321001,19990301,62,50.7055,7.1467,Bonn-Friesdorf,Nordrhein-Westfalen
601,20001101,20031031,158,50.6983,7.0356,Bonn-Hardth-he,Nordrhein-Westfalen
603,20000701,20190202,159,50.7349,7.1931,Bonn-Roleber,Nordrhein-Westfalen
604,19710101,20051031,875,47.8194,8.3348,Bonndorf-Schwarzwald,Baden-Wrttemberg
606,19500101,19540731,569,48.0791,10.1977,Boos,Bayern
614,19510101,20071231,240,51.5709,9.312,Borgentreich-B-hne,Nordrhein-Westfalen
617,20040601,20190202,47,51.873,6.8863,Borken in Westfalen,Nordrhein-Westfalen
619,19470101,20060228,12,53.5788,6.6703,Borkum-S-derstraﬂe,Niedersachsen
634,19800301,19910331,373,49.4442,9.6458,Boxberg-Seehof,Baden-Wrttemberg
642,19660101,19931031,1,53.3517,8.4969,Brake,Niedersachsen
643,19931101,19941231,0,53.296,8.4529,Brake-S-derfeld,Niedersachsen
645,19470101,19520131,75,52.4083,7.9682,Bramsche,Niedersachsen
648,19630501,20061231,9,53.8551,9.7152,Brande-H-rnerkirchen,Schleswig-Holstein
650,19480701,20010430,35,52.4136,12.5503,Brandenburg-G-rden,Brandenburg
652,19490101,19580731,384,49.5353,10.7706,Hagenb-chach,Bayern
656,19310101,20190202,607,51.7234,10.6021,Braunlage,Niedersachsen
657,19550101,20031231,625,51.6634,10.669,Braunlage-Hohegeiﬂ,Niedersachsen
660,19480101,19601231,83,52.2744,10.5656,Braunschweig-Gliesmarode,Niedersachsen
661,18910101,19531231,75,52.2708,10.5334,Braunschweig (T.H.),Niedersachsen
662,19610101,20190202,81,52.2915,10.4464,Braunschweig,Niedersachsen
685,19980112,20061101,585,49.9017,9.4281,Breitsol,Bayern
691,18900101,20190202,4,53.045,8.7979,Bremen,Bremen
699,19490101,19580630,4,53.1004,8.7834,Bremen-Seefahrtschule,Bremen
701,19490101,20190202,7,53.5332,8.5761,Bremerhaven,Bremen
702,19480101,19600630,8,53.5876,8.6015,Bremerhaven-Speckenb-ttel,Bremen
703,19370101,19850531,5,53.4779,9.1553,Bremerv-rde (A),Niedersachsen
704,19980101,20190202,11,53.4451,9.139,Bremerv-rde,Niedersachsen
705,19850601,20061231,5,53.5312,9.1664,Bremerv-rde-Niederochtenhausen,Niedersachsen
706,19710501,20041231,234,47.8858,7.6611,Eschbach,Baden-Wrttemberg
710,19831101,20031231,181,49.025,8.6991,Bretten,Baden-Wrttemberg
717,19370101,20040630,443,51.3873,8.5737,Brilon,Nordrhein-Westfalen
722,18960101,20190202,1134,51.7986,10.6183,Brocken,Sachsen-Anhalt
727,19580101,19861231,290,49.7345,8.9557,Brombachtal-Kirch-Brombach,Hessen
729,19470101,19801231,600,50.8282,10.454,Brotterode,Th-ringen
736,19470101,19991231,390,49.6303,7.1148,Br-cken,Rheinland-Pfalz
743,20000701,20010929,73,51.2,6.1333,Br-ggen (Flugplatz),Nordrhein-Westfalen
755,19350101,20190202,340,49.5182,9.3213,Buchen Kr. Neckar-Odenwald,Baden-Wrttemberg
757,19901001,20190202,445,47.9625,7.9983,Buchenbach,Baden-Wrttemberg
760,19760601,20190202,82,53.3629,9.9435,Rosengarten-Klecken,Niedersachsen
766,20000701,20190202,477,50.1746,7.0595,B-chel (Flugplatz),Rheinland-Pfalz
769,19790101,20190202,68,52.2817,9.0889,B-ckeburg,Niedersachsen
771,19470101,19551231,148,50.2769,9.1167,B-dingen,Hessen
772,19470101,19860430,190,48.6957,8.1744,B-hlertal,Baden-Wrttemberg
773,19860501,20041231,478,48.6743,8.1799,B-hlertal-Obertal,Baden-Wrttemberg
793,19920101,19941031,530,49.662,7.1098,Buhlenberg,Rheinland-Pfalz
807,19410101,20061231,290,49.745,10.6434,Schl-sselfeld (Kl-ranlage),Bayern
817,19521001,20190202,293,51.0306,8.8146,Burgwald-Bottendorf,Hessen
829,19790701,19951130,479,50.396,8.5465,Butzbach-Bodenrod,Hessen
833,19720501,20010430,615,50.6951,13.4975,Neuhausen-Erzgeb.-Rauschenbach (Talsp.),Sachsen
840,19950301,20190202,897,50.4313,12.6114,Carlsfeld,Sachsen
848,19400101,19781231,38,52.6146,10.0726,Celle (Stadt),Niedersachsen
850,19790101,20190202,39,52.5959,10.0296,Celle,Niedersachsen
851,19480201,19960430,389,49.2504,12.604,Pemfling-Pitzling,Bayern
853,18820101,20190202,418,50.7913,12.872,Chemnitz,Sachsen
856,19980101,20190202,551,47.8843,12.5404,Chieming,Bayern
863,18900101,20120331,585,51.7904,10.347,Clausthal-Zellerfeld,Niedersachsen
865,19600101,19710228,42,52.8441,8.0624,Cloppenburg,Niedersachsen
867,19470101,20190202,345,50.3067,10.968,Lautertal-Oberlauter,Bayern
876,19470101,19881231,314,51.304,13.0096,Collmberg,Sachsen
879,20000701,20030331,68,51.7667,14.2833,Cottbus (Flugplatz),Brandenburg
880,18870101,20190202,69,51.776,14.3168,Cottbus,Brandenburg
881,19500101,20031231,423,49.0985,10.0979,Crailsheim-Alexandersreut,Baden-Wrttemberg
888,19650101,19911216,269,50.8149,12.3821,Crimmitschau,Sachsen
891,19460101,20190202,5,53.8713,8.7058,Cuxhaven,Niedersachsen
896,19630101,20190202,170,51.0778,10.8619,Dachwig,Th-ringen
917,19950801,20190202,162,49.8809,8.6779,Darmstadt,Hessen
918,19871001,19950731,122,49.8453,8.624,Darmstadt (A),Hessen
919,19370203,19740731,169,49.8697,8.6796,Darmstadt-Botanischer Garten,Hessen
920,19490101,19870930,108,49.8564,8.5929,Darmstadt (US-Air-Base),Hessen
927,19851001,20001231,430,50.1957,6.8279,Daun,Rheinland-Pfalz
931,19890801,20031231,708,47.8007,9.4108,Deggenhausertal-Azenweiler,Baden-Wrttemberg
948,19470101,19501231,60,51.8512,12.2515,Dessau,Sachsen-Anhalt
953,19500801,20190202,481,49.7619,7.0541,Deuselbach,Rheinland-Pfalz
954,19980101,20190202,0,54.1796,7.4587,UFS Deutsche Bucht,Hamburg
963,19520901,20190202,38,52.5881,8.3424,Diepholz,Niedersachsen
964,19520101,19621231,413,50.0832,6.8904,Dierfeld,Rheinland-Pfalz
965,19480601,19900630,100,51.2401,13.4166,Diesbar-Seuﬂlitz,Sachsen
970,19850401,19990630,405,49.4158,10.6734,Dietenhofen,Bayern
979,19470801,20190202,314,50.7364,8.2672,Dillenburg,Hessen
982,19470501,20061130,420,48.5701,10.4985,Dillingen-Donau,Bayern
983,20061201,20190202,419,48.5562,10.5599,Dillingen-Donau-Fristingen,Bayern
991,19540901,20190202,365,50.9117,13.7087,Dippoldiswalde-Reinberg,Sachsen
998,19480101,20011031,696,48.7968,8.4921,Dobel,Baden-Wrttemberg
1000,19910701,19970831,3,54.1442,11.8454,Doberan Bad-Heiligendamm,Mecklenburg-Vorpommern
1001,19480701,20190202,97,51.6451,13.5747,Doberlug-Kirchhain,Brandenburg
1003,19470101,19661231,201,51.1333,13.1167,D-beln,Sachsen
1006,19471101,19610930,15,53.1399,11.2544,D-mitz,Mecklenburg-Vorpommern
1018,19510101,20041231,677,47.9422,8.5046,Donaueschingen,Baden-Wrttemberg
1032,19500101,19990930,120,51.512,7.5345,Dortmund,Nordrhein-Westfalen
1047,18280101,19151231,112,51.0557,13.7274,Dresden (Mitte),Sachsen
1048,19340101,20190202,227,51.128,13.7543,Dresden-Klotzsche,Sachsen
1050,19490101,20190202,114,51.0221,13.847,Dresden-Hosterwitz,Sachsen
1051,19360101,20190202,120,51.0248,13.775,Dresden-Strehlen,Sachsen
1052,19930501,20190202,80,52.2174,12.1641,Drewitz bei Burg,Sachsen-Anhalt
1053,19370101,20030731,192,51.7337,9.0445,Driburg Bad,Nordrhein-Westfalen
1066,19630101,19761231,180,51.504,10.2613,Duderstadt,Niedersachsen
1072,19520101,20190202,107,49.4719,8.1929,D-rkheim Bad,Rheinland-Pfalz
1073,19360101,19521231,115,49.4686,8.1797,D-rkheim Bad (Saline),Rheinland-Pfalz
1074,19470401,19730228,103,51.3043,12.081,D-rrenberg Bad,Sachsen-Anhalt
1076,19360801,20001130,692,48.0135,8.5343,D-rrheim Bad,Baden-Wrttemberg
1078,19690701,20190202,37,51.296,6.7686,D-sseldorf,Nordrhein-Westfalen
1079,19350101,19960731,37,51.1998,6.7574,D-sseldorf-S-dfriedhof,Nordrhein-Westfalen
1084,19940501,20070531,31,51.394,6.7026,Duisburg-Friemersheim,Nordrhein-Westfalen
1087,19510101,19931231,21,51.4634,6.7321,Duisburg-Laar,Nordrhein-Westfalen
1091,19910101,20071231,258,51.2806,10.7362,Ebeleben,Th-ringen
1093,19510101,20051031,131,49.46,8.9584,Eberbach (LUBW),Baden-Wrttemberg
1102,19871101,20021231,300,48.7201,9.5328,Ebersbach-Fils,Baden-Wrttemberg
1103,19780101,20190202,592,48.1002,11.9872,Ebersberg-Halbing,Bayern
1106,19470101,19501231,45,52.8239,13.7979,Eberswalde,Brandenburg
1107,19630101,20190202,346,49.852,10.499,Ebrach,Bayern
1130,20000701,20050131,17,54.6282,9.3649,Eggebek,Schleswig-Holstein
1146,19850701,19870731,487,48.6593,8.9121,Ehningen,Baden-Wrttemberg
1154,19450101,19660930,470,48.3416,12.882,Eiberg,Bayern
1161,19550101,20190202,384,48.8777,11.2349,Eichst-tt-Landershofen,Bayern
1169,19760201,19990930,264,47.6288,7.5959,Eimeldingen,Baden-Wrttemberg
1172,19510101,19891130,123,51.8189,9.8871,Einbeck,Niedersachsen
1182,19470101,20010531,146,51.5029,11.5705,Eisleben-Helfta,Sachsen-Anhalt
1188,19470101,19740831,518,50.7041,10.8576,Elgersburg,Th-ringen
1197,19410101,20190202,460,48.9895,10.1312,Ellwangen-Rindelbach,Baden-Wrttemberg
1200,19980101,20190202,3,54.0691,9.0105,Elpersb-ttel,Schleswig-Holstein
1201,19470701,20001231,85,50.9281,6.5646,Elsdorf-Erftkreis,Nordrhein-Westfalen
1204,19490101,19651231,1,53.2346,8.4612,Elsfleth,Niedersachsen
1207,19480601,20190202,560,50.2705,12.2742,Elster Bad-Sohl,Sachsen
1214,19871101,20190202,440,48.2012,8.1089,Elzach-Fisnacht,Baden-Wrttemberg
1219,19470101,19970630,5,53.3449,7.1909,Emden-Nesserland,Niedersachsen
1221,19550101,19740228,0,53.3707,7.2236,Emden-Wolthusen,Niedersachsen
1224,19751101,20190202,201,48.1378,7.8351,Emmendingen-Mundingen,Baden-Wrttemberg
1228,20000701,20181230,0,54.1651,6.346,UFS TW Ems,Hamburg
1229,19470101,19970331,90,50.3324,7.6975,Ems Bad,Rheinland-Pfalz
1238,19510101,19960930,144,50.9884,7.425,Engelskirchen,Nordrhein-Westfalen
1239,19860801,20080923,540,47.8516,8.7673,Engen-Hegau,Baden-Wrttemberg
1243,19760101,19850930,705,48.4734,9.3028,Eningen,Baden-Wrttemberg
1246,20150801,20190202,104,51.8418,8.0607,Ennigerloh-Ostenfelde,Nordrhein-Westfalen
1254,19470701,20021130,210,49.1307,8.9165,Eppingen,Baden-Wrttemberg
1255,20021201,20181231,220,49.1664,8.8523,Eppingen-Elsenz,Baden-Wrttemberg
1262,19920517,20190202,446,48.3477,11.8133,M-nchen-Flughafen,Bayern
1266,19640501,20190202,18,54.2992,9.3162,Erfde,Schleswig-Holstein
1270,19510101,20190202,316,50.9829,10.9608,Erfurt-Weimar,Th-ringen
1275,19670401,19801231,340,48.3008,13.1398,Ering,Bayern
1276,19800801,20021231,408,47.6358,9.5392,Eriskirch-Mariabrunn,Baden-Wrttemberg
1279,19490101,20190202,268,49.6497,11.0074,M-hrendorf-Kleinseebach,Bayern
1280,19470401,19531231,280,49.5692,10.9929,Erlangen-Bruck,Bayern
1287,19911201,20060831,198,49.8589,9.2861,Eschau-Hobbach,Bayern
1292,19670101,20060430,470,49.7522,11.8222,Eschenbach-Oberpfalz,Bayern
1297,19470901,20190202,156,51.2041,10.0138,Eschwege,Hessen
1299,19790901,19991031,3,53.6476,7.6085,Esens,Niedersachsen
1300,19380101,20190202,351,51.254,8.1565,Eslohe,Nordrhein-Westfalen
1303,19350101,20190202,150,51.4041,6.9677,Essen-Bredeney,Nordrhein-Westfalen
1327,19370101,20190202,147,50.7119,6.7905,Weilerswist-Lommersum,Nordrhein-Westfalen
1329,19360101,20031231,50,54.134,10.5865,Eutin,Schleswig-Holstein
1332,19660701,20190202,472,48.4832,12.7241,FalkenbergKr.Rottal-Inn,Bayern
1339,20000701,20190202,73,52.9157,10.1885,Faﬂberg,Niedersachsen
1341,20081201,20111102,0,54.6,11.15,Fehmarnbelt,Schleswig-Holstein
1345,19470301,19621231,92,53.3346,13.4371,Feldberg,Mecklenburg-Vorpommern
1346,19450101,20190202,1490,47.8749,8.0038,Feldberg-Schwarzwald,Baden-Wrttemberg
1347,19800201,19870131,962,47.8555,8.1155,Feldberg-Altglash-tten,Baden-Wrttemberg
1357,19480101,20190202,654,49.9807,11.8376,Fichtelberg-Oberfranken-H-ttstadl,Bayern
1358,18900801,20190202,1213,50.4283,12.9535,Fichtelberg,Sachsen
1372,19920101,20021031,757,47.4608,10.2696,Fischen,Bayern
1374,19490112,19720430,363,50.5049,10.1671,Fladungen-Heufurt,Bayern
1378,19850701,20061231,45,54.8086,9.4182,Flensburg,Schleswig-Holstein
1379,19570101,19850630,41,54.7737,9.3752,Flensburg (Sch-ferhaus),Schleswig-Holstein
1380,19410101,19561231,19,54.8147,9.458,Flensburg-M-rwik,Schleswig-Holstein
1392,19871001,20061231,622,49.7317,12.3491,Flossenb-rg,Bayern
1403,19650401,19801031,260,50.0616,9.455,Frammersbach,Bayern
1410,19910101,19970331,130,51.3512,11.0958,Frankenhausen-Kyffh-user Bad,Th-ringen
1411,19910101,20190202,745,50.5309,10.048,Birx-Rh-n,Th-ringen
1420,19490101,20190202,100,50.0259,8.5213,Frankfurt-Main,Hessen
1421,19611201,19840831,125,50.1474,8.6746,Frankfurt-Main (Stadt),Hessen
1424,19851101,20190202,124,50.1269,8.6694,Frankfurt-Main-Westend,Hessen
1425,18700101,19611130,109,50.1213,8.6601,Frankfurt-Main (Feldbergstr.),Hessen
1426,19470101,19841231,65,52.3397,14.508,Frankfurt-Oder,Brandenburg
1428,19480101,19571231,230,49.2275,8.0585,Frankweiler,Rheinland-Pfalz
1440,19710501,20031231,481,48.2018,7.9336,Freiamt-Ottoschwanden,Baden-Wrttemberg
1441,19470101,19930430,416,50.9263,13.2711,Freiberg,Sachsen
1443,19490501,20190202,236,48.0233,7.8344,Freiburg,Baden-Wrttemberg
1447,19470101,19850630,255,48.013,7.8588,Freiburg im Breisgau-Herdern,Baden-Wrttemberg
1451,19701101,20190202,2,53.8277,9.2493,Freiburg-Elbe,Niedersachsen
1467,19480101,20051231,736,48.4607,8.4141,Freudenstadt-Kurgarten,Baden-Wrttemberg
1468,19490101,20190202,797,48.4537,8.4091,Freudenstadt,Baden-Wrttemberg
1473,20060101,20190202,436,49.178,11.3735,Freystadt-Oberndorf,Bayern
1481,19710101,19981231,928,47.9216,8.2547,Friedenweiler,Baden-Wrttemberg
1488,19470101,19721231,523,51.6884,11.0394,Friedrichsbrunn,Sachsen-Anhalt
1490,19470101,19801130,394,47.6454,9.4795,Friedrichshafen,Baden-Wrttemberg
1492,19580101,20031231,852,47.7819,7.7348,Malsburg-Marzell-Friedrichsheim,Baden-Wrttemberg
1493,19920701,19951231,793,50.4788,11.0159,Friedrichsh-he,Th-ringen
1503,19470201,20190202,6,53.0643,7.9022,Friesoythe-Altenoythe,Niedersachsen
1504,20000701,20190202,172,51.119,9.2799,Fritzlar (Flugplatz),Hessen
1513,19470101,19621130,653,50.6588,8.1027,Fuchskauten,Rheinland-Pfalz
1515,20000702,20030731,519,48.2,11.2667,F-rstenfeldbruck,Bayern
1522,19470601,19550331,313,49.4811,10.964,F-rth-Bayern (A),Bayern
1526,19490101,20190202,242,50.5668,9.6533,Fulda-Horas,Hessen
1544,19470101,20190202,47,52.5129,11.3941,Gardelegen,Sachsen-Anhalt
1550,19360101,20190202,719,47.4831,11.0623,Garmisch-Partenkirchen,Bayern
1552,19951101,19960430,13,53.2066,14.3817,Gartz-Oder,Brandenburg
1568,19580501,19821231,916,50.6549,10.7743,Gehlberg-Schm-cke,Th-ringen
1572,20000701,20190131,80,50.9593,6.0392,Geilenkirchen (Flugplatz),Nordrhein-Westfalen
1580,18840701,20190202,110,49.9859,7.9549,Geisenheim,Hessen
1583,19470101,19701231,823,50.7719,13.7732,Geisingberg,Sachsen
1584,20090601,20190202,672,47.9242,8.6473,Geisingen,Baden-Wrttemberg
1586,19610701,19680430,610,47.8774,12.6279,Traunstein-Geiﬂing,Bayern
1587,19980101,20190202,536,48.9481,11.4289,Gelbelsee,Bayern
1590,19631001,20190202,37,51.4942,6.2463,Geldern-Walbeck,Nordrhein-Westfalen
1593,19350101,19740430,190,50.2027,9.1989,Gelnhausen,Hessen
1602,19700101,20190202,176,48.4329,7.9931,Ohlsbach,Baden-Wrttemberg
1605,19530101,20190202,35,52.3875,12.1601,Genthin,Sachsen-Anhalt
1612,19520101,20190202,311,50.8813,12.1289,Gera-Leumnitz,Th-ringen
1617,19520101,20071231,210,51.7259,11.1317,Gernrode,Sachsen-Anhalt
1619,19560101,20051231,90,49.7622,8.4887,Gernsheim,Hessen
1621,19490101,19631231,550,50.2766,9.9146,Geroda-Platz,Bayern
1623,19960301,20021130,530,50.4477,9.9174,Gersfeld,Hessen
1638,19490101,19840430,158,50.591,8.6551,Gieﬂen (Lahntal),Hessen
1639,19390101,20190202,203,50.6017,8.6439,Gieﬂen-Wettenberg,Hessen
1645,19490101,20190202,340,50.9656,9.05,Gilserberg-Moischeid,Hessen
1666,19930301,20190202,27,54.8273,9.5057,Gl-cksburg-Meierwik,Schleswig-Holstein
1667,19480101,20061231,1,53.797,9.4295,Gl-ckstadt,Schleswig-Holstein
1684,19350101,20190202,238,51.1622,14.9506,G-rlitz,Sachsen
1689,19360101,20040630,443,49.7656,11.3061,G-ﬂweinstein,Bayern
1691,19470101,20190202,167,51.5002,9.9507,G-ttingen,Niedersachsen
1694,19470101,20190202,58,53.606,12.1033,Goldberg,Mecklenburg-Vorpommern
1709,19520101,19901231,360,50.8496,13.9392,Gottleuba Bad,Sachsen
1721,19910101,20190202,506,49.664,11.2239,Gr-fenberg-Kasberg,Bayern
1735,19570501,20190202,628,48.7893,13.6291,Grainet-Rehberg,Bayern
1736,19510101,20190202,27,53.5731,10.6797,Grambek,Schleswig-Holstein
1748,19360101,20050331,608,50.4788,9.262,Grebenhain-Herchenhain,Hessen
1757,18980301,20190202,2,54.0967,13.4056,Greifswald,Mecklenburg-Vorpommern
1758,19470101,19771231,2,54.1,13.45,Greifswald-Wieck,Mecklenburg-Vorpommern
1759,19470801,20190202,12,54.2437,13.9102,Greifswalder Oie,Mecklenburg-Vorpommern
1761,19470101,19581231,284,50.65,12.2,Greiz,Th-ringen
1762,19910101,20061231,270,50.6249,12.1777,Greiz-D-lau,Th-ringen
1766,19891001,20190202,48,52.1344,7.6969,M-nster-Osnabr-ck,Nordrhein-Westfalen
1803,19670101,20190202,34,54.0714,12.3238,Groﬂ L-sewitz,Mecklenburg-Vorpommern
1832,19821101,20190202,1436,49.1129,13.1338,Groﬂer Arber,Bayern
1833,19470101,19821031,1307,49.0851,13.2801,Grosser Falkenstein,Bayern
1834,19510101,19780630,913,50.8519,10.4665,Grosser Inselsberg,Th-ringen
1844,19590101,19811231,517,47.9411,11.9004,Feldkirchen-Westerham-Lenzm-hle,Bayern
1849,19490101,19601231,408,48.8126,11.5728,Groﬂmehring-Theiﬂing,Bayern
1863,19950301,20190202,258,50.2667,9.1854,Gr-ndau-Breitenborn,Hessen
1869,19730101,20190202,56,53.3153,13.9338,Gr-now,Brandenburg
1873,19570501,19981231,300,51.7956,10.238,Grund Bad,Niedersachsen
1875,19510101,20021231,492,48.9354,9.7364,Gschwend Kr. Ostalb,Baden-Wrttemberg
1886,20160901,20190202,444,48.4878,10.2607,G-nzburg,Bayern
1890,19470101,19501231,30,53.7667,12.2167,G-strow-Schabernack,Mecklenburg-Vorpommern
1891,19380101,20020331,73,51.8771,8.3577,Rheda-Wiedenbr-ck-Lintel,Nordrhein-Westfalen
1892,20000701,20131027,72,51.9298,8.3005,G-tersloh (Flugplatz),Nordrhein-Westfalen
1902,19841101,20001231,413,49.1273,10.7448,Gunzenhausen (Altm-hlsee),Bayern
1920,19780601,20071231,100,51.4129,7.4895,Hagen-Fley,Nordrhein-Westfalen
1929,19470101,20010731,567,51.8597,10.3368,Hahnenklee,Niedersachsen
1957,19510101,20150322,93,51.5138,11.9499,Halle-Kr-llwitz,Sachsen-Anhalt
1960,18510101,19661231,102,51.4831,11.9671,Halle (Stadt),Sachsen-Anhalt
1964,19520101,20190117,328,49.9445,6.3821,Olsdorf,Rheinland-Pfalz
1972,19120101,19620930,35,53.4793,10.2415,Hamburg-Bergedorf,Hamburg
1973,19470101,19541231,14,53.5598,9.9874,Hamburg-Botanischer Garten,Hamburg
1975,19360101,20190202,11,53.6332,9.9881,Hamburg-Fuhlsb-ttel,Hamburg
1979,19510101,20061231,2,53.4213,10.1462,Hamburg-Kirchwerder,Hamburg
1981,19620501,20190202,3,53.4777,9.8957,Hamburg-Neuwiedenthal,Hamburg
1986,19780601,19880430,1,53.4699,10.1804,Hamburg-Reitbrook,Hamburg
1987,19560101,20000229,47,53.5467,9.9662,Hamburg-Sankt Pauli,Hamburg
1990,19510101,20061231,18,53.5853,10.1293,Hamburg-Wandsbek,Hamburg
1993,19400101,20071031,68,52.0848,9.3896,Hameln,Niedersachsen
2000,19950601,19960930,106,50.1205,8.9243,Hanau,Hessen
2005,19610101,19941231,108,52.7199,10.5987,Hankensb-ttel,Niedersachsen
2014,19360101,20190202,55,52.4644,9.6779,Hannover,Niedersachsen
2023,19980101,20190202,502,48.7918,10.7062,Harburg,Bayern
2039,19360101,20190202,201,51.9002,10.5699,Harzburg Bad,Niedersachsen
2044,19450501,20190202,404,51.652,11.1367,Harzgerode,Sachsen-Anhalt
2048,19510101,19591231,3,53.6342,9.6038,Haseldorf,Schleswig-Holstein
2053,19630101,19751231,461,51.6868,10.8631,Hasselfelde,Sachsen-Anhalt
2069,19360101,19750531,648,48.8629,13.067,Hausstein,Bayern
2074,19470101,20190202,522,48.3751,8.9801,Hechingen,Baden-Wrttemberg
2078,19370101,20020630,10,54.2181,9.0853,Weddingstedt,Schleswig-Holstein
2080,19350101,20120912,110,49.4206,8.6676,Heidelberg,Baden-Wrttemberg
2081,19360101,19601231,561,49.3981,8.7251,K-nigstuhl,Baden-Wrttemberg
2083,19490101,19581231,110,49.4192,8.6051,Heidelberg-Grenzhof,Baden-Wrttemberg
2088,19470101,20050430,498,48.6765,10.1307,Heidenheim-Brenz,Baden-Wrttemberg
2092,19520201,19901231,496,50.1691,7.9949,Heidenrod-Mappershain,Hessen
2095,19470701,20031031,167,49.1448,9.2333,Heilbronn,Baden-Wrttemberg
2110,19630101,20190202,57,51.0411,6.1042,Heinsberg-Schleiden,Nordrhein-Westfalen
2115,19520501,20190202,4,54.175,7.892,Helgoland,Schleswig-Holstein
2120,19470301,20061231,140,52.2164,11.0219,Helmstedt,Niedersachsen
2122,19700101,20020531,2,53.9701,9.0095,Helse Kr. Dithmarschen,Schleswig-Holstein
2147,19360101,20071231,77,52.1264,8.6865,Herford,Nordrhein-Westfalen
2151,19470101,19910831,215,51.0048,10.1705,Herleshausen,Hessen
2158,19510101,20050930,350,48.8042,8.443,Herrenalb Bad,Baden-Wrttemberg
2159,19780401,19850331,430,48.5915,8.8541,Herrenberg,Baden-Wrttemberg
2160,19910101,20001231,360,50.8444,10.6904,Herrenhof,Th-ringen
2166,19510101,19901231,344,51.0167,14.75,Herrnhut,Sachsen
2167,19480101,20120331,302,49.7672,7.3356,Niederw-rresbach,Rheinland-Pfalz
2171,19490101,20190202,272,50.8519,9.7378,Hersfeld Bad,Hessen
2173,19760101,20071231,60,51.589,7.1548,Herten,Nordrhein-Westfalen
2174,19911001,20190202,238,51.6255,10.3695,Herzberg,Niedersachsen
2201,19310414,20190202,1,54.575,13.1044,Hiddensee-Vitte,Mecklenburg-Vorpommern
2206,19530301,20080229,117,52.1408,9.8838,Hildesheim,Niedersachsen
2211,19370101,20190202,295,50.7371,7.6528,Hilgenroth,Rheinland-Pfalz
2221,19800101,19991031,1053,47.5408,10.4371,Hindelang-Unterjoch,Bayern
2223,19910101,20011231,300,50.3674,10.5687,Hindfeld,Th-ringen
2225,19220101,19840930,385,50.9167,14.3667,Hinterhermsdorf,Sachsen
2226,19910101,20020930,668,50.4707,10.9106,Eisfeld-Waffenrod-Hinterrod,Th-ringen
2228,19460101,20050331,883,47.8983,8.1055,Hinterzarten,Baden-Wrttemberg
2244,19460101,19990930,1008,47.7327,8.1627,H-chenschwand,Baden-Wrttemberg
2250,19410101,20060731,403,49.1279,12.8645,H-llenstein (Kraftwerk),Bayern
2252,19470101,20190202,270,50.899,14.7457,Bertsdorf-H-rnitz,Sachsen
2260,19490101,20061231,474,50.323,11.9077,Hof (Stadt),Bayern
2261,19470101,20190202,565,50.3122,11.8761,Hof,Bayern
2264,19480101,20021130,242,51.5337,9.4786,Hofgeismar-Beberbeck,Hessen
2268,19490101,20061231,263,50.1352,10.5156,Hofheim,Bayern
2289,19530701,19661231,28,52.6667,12.3333,Hohennauen,Brandenburg
2290,17810101,20190202,977,47.8009,11.0108,Hohenpeiﬂenberg,Bayern
2297,19720601,19951130,80,54.1195,9.7127,Hohenwestedt,Schleswig-Holstein
2302,19910101,19921231,317,50.9632,11.4847,Hohlstedt-K-tschau,Th-ringen
2303,19811001,20190202,10,54.3146,9.539,Hohn,Schleswig-Holstein
2306,19771101,20190202,8,54.3194,10.6732,Hohwacht,Schleswig-Holstein
2315,20000601,20190202,81,51.7657,13.1666,Holzdorf (Flugplatz),Sachsen-Anhalt
2318,19980801,20000131,397,50.2182,7.9133,Holzhausen a.d. Haide,Rheinland-Pfalz
2319,19821201,20190202,685,47.8823,11.6962,Holzkirchen,Bayern
2323,19510101,20190202,110,51.8529,9.4953,Bevern Kr. Holzminden,Niedersachsen
2324,19750601,20080930,440,51.7659,9.5447,Holzminden-Silberborn,Niedersachsen
2327,19510101,20000630,250,50.7316,9.0032,Homberg-Ohm,Hessen
2331,19700101,20021231,235,49.3278,7.3533,Homburg-Saar,Saarland
2338,20000601,20050630,39,52.3333,7.55,Hopsten (Flugplatz),Nordrhein-Westfalen
2344,19430101,19640331,582,50.1511,11.698,Horlachen,Bayern
2349,19530101,20050831,1119,48.6136,8.2034,Hornisgrinde,Baden-Wrttemberg
2352,19570101,19710831,712,47.6227,8.0177,Hottingen,Baden-Wrttemberg
2354,19470201,19591231,118,51.4379,14.2426,Hoyerswerda (Ph),Sachsen
2360,19360101,19780430,438,48.6018,11.6769,H-ll,Bayern
2362,19821001,20190202,328,50.5651,7.4843,H-mmerich,Rheinland-Pfalz
2374,18910101,19740630,3,54.4752,9.0564,Husum,Schleswig-Holstein
2385,20000701,20190202,376,49.6927,7.3264,Idar-Oberstein,Rheinland-Pfalz
2388,19900601,20031231,193,48.0419,7.6322,Ihringen,Baden-Wrttemberg
2396,19470101,19501231,260,51.8667,10.6833,Ilsenburg,Sachsen-Anhalt
2406,19800701,20021130,209,49.2967,9.652,Ingelfingen,Baden-Wrttemberg
2409,19410101,19531231,360,48.7662,11.4539,Ingolstadt (Flussmeisterstelle),Bayern
2410,20000702,20190202,364,48.7112,11.5362,Ingolstadt (Flugplatz),Bayern
2417,19590101,19771231,621,48.1644,12.0307,Mittbach,Bayern
2422,19380101,19780630,230,51.3768,7.7644,Iserlohn-Westig,Nordrhein-Westfalen
2423,19470101,20040430,712,47.6894,10.0416,Isny,Baden-Wrttemberg
2429,20000601,20190202,21,53.9897,9.5696,Itzehoe,Schleswig-Holstein
2436,19950101,20061231,55,52.0547,13.2344,J-nickendorf,Brandenburg
2437,19980101,20190202,21,54.457,9.5203,Schleswig-Jagel,Schleswig-Holstein
2444,18240101,20190202,155,50.9251,11.583,Jena (Sternwarte),Th-ringen
2451,19910101,20010831,77,51.7954,12.9583,Jessen-Elster,Sachsen-Anhalt
2456,19400101,20050826,7,53.5322,7.8806,Jever,Niedersachsen
2464,19510101,19901031,1,53.5316,9.6752,Jork,Niedersachsen
2474,19760101,20081231,91,50.9104,6.4093,J-lich (Forsch.-Anlage),Nordrhein-Westfalen
2475,19670101,19801231,75,52,13.1009,J-terbog,Brandenburg
2477,19700401,20081231,728,47.5938,7.9597,Jungholz (K-hmoos),Baden-Wrttemberg
2480,19470101,20190202,107,50.0643,8.993,Kahl-Main,Bayern
2483,19261101,20190202,839,51.1803,8.4891,Kahler Asten,Nordrhein-Westfalen
2485,20110501,20190202,489,48.9171,9.6872,Kaisersbach-Cronh-tte,Baden-Wrttemberg
2486,19010101,20190202,271,49.4262,7.7557,Kaiserslautern,Rheinland-Pfalz
2488,19460101,20020930,516,48.7701,10.7876,Kaisheim-Neuhof,Bayern
2494,20000601,20130929,31,51.7329,6.2688,Kalkar,Nordrhein-Westfalen
2497,19470101,20190202,505,50.5014,6.5264,Kall-Sistig,Nordrhein-Westfalen
2502,19510201,19561231,447,51.318,10.1348,Heiligenstadt Heilbad-Kalteneber,Th-ringen
2503,19510101,20030331,487,50.6266,10.1455,Kaltennordheim,Th-ringen
2506,19470101,19630831,270,51.2667,14.0833,Kamenz,Sachsen
2521,19500101,19940331,374,48.6765,11.2961,Karlshuld,Bayern
2522,18760101,20081031,112,49.0382,8.3641,Karlsruhe,Baden-Wrttemberg
2532,19510101,20131031,231,51.2963,9.4424,Kassel,Hessen
2533,19460701,19770630,198,51.334,9.4506,Kassel-Harleshausen,Hessen
2536,19830901,19921231,283,51.3173,9.4145,Kassel-Wilhelmsh-he (A),Hessen
2542,19700501,20160331,716,47.8652,10.6007,Kaufbeuren,Bayern
2543,19680101,20081231,585,48.0916,10.8609,Kaufering,Bayern
2546,19881001,20031231,141,48.5576,7.88,Kehl-Odelshofen,Baden-Wrttemberg
2559,19520101,20190202,705,47.7233,10.3348,Kempten,Bayern
2564,19860601,20190202,27,54.3761,10.1433,Kiel-Holtenau,Schleswig-Holstein
2565,19400101,19880930,17,54.3378,10.0929,Kiel-Kronshagen,Schleswig-Holstein
2575,20070522,20190202,426,49.1804,9.98,Kirchberg-Jagst-Herboldshausen,Baden-Wrttemberg
2578,18650101,20190202,12,53.9995,11.4341,Kirchdorf-Poel,Mecklenburg-Vorpommern
2597,19460101,20190202,282,50.2241,10.0792,Kissingen Bad,Bayern
2600,19821101,20190202,188,49.7363,10.1781,Kitzingen,Bayern
2601,19360101,20190202,826,50.2218,8.4469,Kleiner Feldberg-Taunus,Hessen
2609,19740901,19810331,40,53.9587,10.3293,Klein R-nnau,Schleswig-Holstein
2618,19580101,20190202,732,50.8458,10.4803,Kleiner Inselsberg,Th-ringen
2621,19560101,19691231,42,52.4045,13.2134,Kleinmachnow,Brandenburg
2627,19960701,20190202,128,51.5555,13.8845,Klettwitz,Brandenburg
2629,19471111,20190202,46,51.7612,6.0954,Kleve,Nordrhein-Westfalen
2638,19470101,20190202,973,48.1054,8.7549,Klippeneck,Baden-Wrttemberg
2641,19941001,20190202,85,51.5185,12.9065,Klitzschen bei Torgau,Sachsen
2654,19490101,19831031,200,49.0265,8.7554,Knittlingen,Baden-Wrttemberg
2657,19510101,20080131,85,50.3369,7.5992,Koblenz-Horchheim,Rheinland-Pfalz
2665,19360101,19841231,45,50.9615,6.9712,K-ln-Botanischer Garten,Nordrhein-Westfalen
2667,19570901,20190202,92,50.8646,7.1575,K-ln-Bonn,Nordrhein-Westfalen
2677,19510101,20001231,730,48.1413,8.4285,K-nigsfeld-Schwarzwald,Baden-Wrttemberg
2680,19510101,20190202,288,50.284,10.4456,K-nigshofen Bad,Bayern
2689,19500101,19601231,40,53.2279,9.6527,K-nigsmoor,Niedersachsen
2691,19940401,20081231,378,48.6707,11.2173,K-nigsmoos-Untermaxfeld,Bayern
2693,19420101,19890630,380,50.1855,8.4698,K-nigstein-Taunus,Hessen
2700,19610101,20190202,416,48.8302,11.4872,K-sching,Bayern
2701,19450701,20070331,136,51.1329,11.7252,K-sen Bad,Sachsen-Anhalt
2703,19980101,20001010,496,51.855,9.3239,K-terberg,Nordrhein-Westfalen
2704,19931001,20190202,76,51.7511,12.0094,K-then (Anhalt),Sachsen-Anhalt
2708,19910801,20190202,740,47.6652,11.0804,Kohlgrub Bad (Rosshof),Bayern
2712,19721101,20190202,443,47.6774,9.1901,Konstanz,Baden-Wrttemberg
2713,19470101,19741231,398,47.6605,9.1634,Konstanz (Stadtg-rtnerei),Baden-Wrttemberg
2717,19890601,20051231,395,51.2662,8.8309,Korbach-Lengefeld,Hessen
2738,19710201,19960430,776,47.6447,11.7436,Kreuth,Bayern
2750,19490101,20190202,312,50.2523,11.3209,Kronach,Bayern
2757,19610101,19831231,238,47.9077,7.702,Krozingen Bad,Baden-Wrttemberg
2761,19510101,19901031,520,48.251,10.4163,Krumbach-Edenhausen,Bayern
2770,19730701,19740831,35,53.9015,10.2359,K-kels,Schleswig-Holstein
2773,20000701,20190202,417,49.4283,11.9016,K-mmersbruck,Bayern
2775,19460101,19800630,225,49.2795,9.6925,K-nzelsau,Baden-Wrttemberg
2780,19600101,19820531,330,50.1003,11.4494,Kulmbach,Bayern
2783,19660901,19920831,436,48.5126,12.1513,Kumhausen,Bayern
2790,19700101,19810831,296,49.5592,7.4134,Kusel-F-nfbirken,Rheinland-Pfalz
2794,19860601,20190202,40,52.9363,12.4093,Kyritz,Brandenburg
2796,20000601,20190202,40,53.9156,12.279,Laage (Flugplatz),Mecklenburg-Vorpommern
2812,19500101,20190202,155,48.3647,7.828,Lahr,Baden-Wrttemberg
2814,19490101,20190202,685,48.5121,9.7645,Merklingen,Baden-Wrttemberg
2821,19480101,19571231,214,51.9603,10.0157,Lamspringe,Niedersachsen
2829,20000601,20180709,621,48.0772,10.9144,Landsberg (Flugplatz),Bayern
2830,19500101,19671231,602,48.0349,10.8709,Landsberg-Lech,Bayern
2831,19470111,20080331,393,48.5357,12.1132,Landshut,Bayern
2843,20081201,20151230,125,50.0075,8.6547,Langen (BZ),Hessen
2856,19930601,20190202,91,51.9173,13.0878,Langenlipsdorf,Brandenburg
2857,19470401,19581130,175,51.1173,10.6568,Langensalza Bad,Th-ringen
2861,19510101,19860630,5,53.7445,7.4775,Langeoog,Niedersachsen
2872,19470101,19501231,15,52.8457,7.3489,Lathen,Niedersachsen
2878,19470401,20190202,118,51.391,11.8788,Lauchst-dt Bad,Sachsen-Anhalt
2879,19490101,19851231,199,49.5781,9.7142,Lauda-K-nigshofen-Gerlachsheim,Baden-Wrttemberg
2886,20000701,20190202,539,48.2176,9.9097,Laupheim,Baden-Wrttemberg
2889,19730101,19910930,300,51.6323,10.4737,Lauterberg Bad (A),Niedersachsen
2905,20000601,20190202,550,48.1849,10.8507,Lechfeld,Bayern
2906,19510101,19750228,5,54.775,8.9808,Leck (A),Schleswig-Holstein
2907,19741101,20190202,7,54.7903,8.9514,Leck,Schleswig-Holstein
2912,19560301,19741130,9,54.7419,9.8791,Lehbek,Schleswig-Holstein
2915,19470101,19611231,640,50.4833,11.45,Lehesten-Th-ringer Wald,Th-ringen
2920,19780901,19970630,365,48.7654,12.5121,Leiblfing,Bayern
2923,19550101,19700531,663,47.9116,10.6124,Leinau,Bayern
2925,19570101,20190202,356,51.3933,10.3123,Leinefelde,Th-ringen
2928,18631201,20190202,138,51.3151,12.4462,Leipzig-Holzhausen,Sachsen
2931,19570801,19720430,128,51.392,12.3962,Leipzig-Mockau,Sachsen
2932,19340101,20190202,131,51.4348,12.2396,Leipzig-Halle,Sachsen
2947,19620401,20190202,286,51.1333,8.0348,Lennestadt-Theten,Nordrhein-Westfalen
2949,19470801,20020131,758,48.5396,9.5275,Lenningen-Schopfloch,Baden-Wrttemberg
2950,19620401,20061231,14,54.219,10.8844,Lensahn,Schleswig-Holstein
2951,19941001,20190202,20,53.1007,11.4864,Lenzen-Elbe,Brandenburg
2953,19610101,20190202,852,47.8597,8.2308,Lenzkirch-Ruhb-hl,Baden-Wrttemberg
2961,19980101,20190202,31,54.4996,10.2737,Leuchtturm Kiel,Schleswig-Holstein
2963,19460101,19781231,92,51.3167,12.0333,Leunawerke,Sachsen-Anhalt
2968,19450101,20190202,43,50.9894,6.9777,K-ln-Stammheim,Nordrhein-Westfalen
2985,19940601,20190202,321,50.9383,14.2093,Lichtenhain-Mittelndorf,Sachsen
2996,19470101,19601231,352,48.7726,8.7287,Liebenzell Bad (LUBW),Baden-Wrttemberg
3001,19650101,19900531,284,48.0674,7.677,Liliental,Baden-Wrttemberg
3004,19490101,19990630,185,50.4116,8.0605,Limburg-Lahn-Offheim,Hessen
3007,19470101,19551231,96,49.4111,8.398,Limburgerhof,Rheinland-Pfalz
3015,19060401,20190202,98,52.2085,14.118,Lindenberg,Brandenburg
3016,19700601,19880430,760,47.598,9.8878,Lindenberg-Allg-u,Bayern
3017,19840701,20100430,341,49.68,8.7823,Lindenfels,Hessen
3018,19730401,20051231,445,49.7117,8.7804,Lindenfels-Winterkasten,Hessen
3023,19510101,20190202,22,52.5181,7.3081,Lingen,Niedersachsen
3028,19510101,20190202,157,51.7855,8.8388,Lippspringe Bad,Nordrhein-Westfalen
3031,19801201,20190202,92,51.6336,8.3945,Lippstadt-B-kenf-rde,Nordrhein-Westfalen
3032,19370101,20190202,25,55.011,8.4125,List auf Sylt,Schleswig-Holstein
3034,19910101,20190202,500,50.4505,11.635,Lobenstein Bad,Th-ringen
3042,19930701,20190202,230,50.5617,8.2386,L-hnberg-Obershausen,Hessen
3044,19460101,20180531,22,52.7198,7.7472,L-ningen,Niedersachsen
3045,19930501,20070630,27,52.7432,7.8763,L-ningen-Hagel,Niedersachsen
3056,19470101,20051031,161,50.0103,9.61,Lohr-Main-Steinbach,Bayern
3062,19510101,19890531,100,50.0352,7.8197,Lorch-Rhein,Hessen
3076,19470101,19561231,95,49.4606,8.4246,Ludwigshafen-Mundenheim,Rheinland-Pfalz
3082,19730101,19741231,56,51.9333,13.8833,L-bben,Brandenburg
3083,19911001,20190202,57,51.9267,13.8797,L-bben-Blumenfelde,Brandenburg
3085,19500301,19850228,15,53.8773,10.6915,L-beck,Schleswig-Holstein
3086,19850301,20190202,16,53.8025,10.6988,L-beck-Blankensee,Schleswig-Holstein
3088,18900101,19730630,5,53.8953,10.704,L-beck-Werft,Schleswig-Holstein
3093,19541201,20190202,16,52.9724,11.1374,L-chow,Niedersachsen
3096,19400101,19951231,444,51.2131,7.6359,L-denscheid (Zeppelin-Gymnasium),Nordrhein-Westfalen
3098,19940101,20190202,387,51.2452,7.6425,L-denscheid,Nordrhein-Westfalen
3101,19500101,19950930,58,51.7694,7.4128,L-dinghausen,Nordrhein-Westfalen
3103,19470501,19971231,11,53.2657,10.424,L-neburg,Niedersachsen
3113,19910101,19910731,528,50.7663,10.7201,Luisenthal (Talsperre),Th-ringen
3126,18810101,20190202,76,52.1029,11.5827,Magdeburg,Sachsen-Anhalt
3135,19550501,19830331,473,49.0643,9.582,Mainhardt-Ziegelbronn,Baden-Wrttemberg
3137,19480101,20190202,195,49.9656,8.2139,Mainz-Lerchenberg (ZDF),Rheinland-Pfalz
3139,19831101,20041231,509,48.2166,11.2965,Maisach-Gernlinden,Bayern
3147,19530101,20190202,418,48.7726,12.2177,Mallersdorf-Pfaffenberg-Niederbayern,Bayern
3155,19611101,20190202,413,50.1015,6.8009,Manderscheid-Sonnenhof,Rheinland-Pfalz
3158,19850101,20190202,12,52.5468,14.5452,Manschnow,Brandenburg
3160,19520101,19801231,240,51.6084,11.4139,Vatterode-Gr-fenstuhl,Sachsen-Anhalt
3164,19460101,20190202,187,50.8492,8.7746,C-lbe Kr. Marburg-Biedenkopf,Hessen
3166,19560101,20190202,639,50.651,13.1469,Marienberg,Sachsen
3167,19621201,20190202,547,50.662,7.9602,Marienberg Bad,Rheinland-Pfalz
3170,20000703,20100430,5,54.4937,11.2405,Marienleuchte,Schleswig-Holstein
3196,19020101,20190202,81,53.3223,11.9319,Marnitz,Mecklenburg-Vorpommern
3204,19910101,20190202,427,50.7334,10.8815,Martinroda,Th-ringen
3211,19420101,19561231,1011,48.9359,13.5747,Mauth-Finsterau,Bayern
3212,19610101,20021231,230,50.3249,7.23,Mayen,Rheinland-Pfalz
3222,19610101,19781231,60,52.3411,9.1403,Meerbeck,Niedersachsen
3223,19470101,19770930,460,47.6985,9.2753,Meersburg,Baden-Wrttemberg
3226,20060801,20190202,107,51.7259,11.5109,Aschersleben-Mehringen,Sachsen-Anhalt
3227,19330101,19801130,216,51.8936,8.9842,Meinberg Bad,Nordrhein-Westfalen
3228,19790801,19951231,506,51.0976,7.667,Meinerzhagen (A),Nordrhein-Westfalen
3231,19790101,20190202,450,50.5612,10.3771,Meiningen,Th-ringen
3234,19560601,20190202,157,51.1294,13.4327,Garsebach bei Meiﬂen,Sachsen
3236,19860701,20011231,89,52.2044,8.3382,Melle,Niedersachsen
3244,19610101,20190202,615,47.982,10.1384,Memmingen,Bayern
3245,20000701,20021120,630,47.9833,10.2333,Memmingen (Flugplatz),Bayern
3246,20000701,20070613,181,50.3667,7.3167,Mendig,Rheinland-Pfalz
3253,19610101,20061231,885,47.8309,8.0699,Sankt Blasien-Menzenschwand,Baden-Wrttemberg
3254,20000702,20190202,19,52.7156,7.3176,Meppen,Niedersachsen
3257,19470101,20190202,250,49.4773,9.7622,Mergentheim Bad-Neunkirchen,Baden-Wrttemberg
3265,19530101,19621231,302,49.922,9.2872,Mespelbrunn,Bayern
3268,20000601,20190202,900,48.1694,8.9433,Meﬂstetten-Appental,Baden-Wrttemberg
3271,19410101,20190202,313,48.8548,12.9189,Metten,Bayern
3274,19921001,20111231,415,49.507,6.5215,Mettlach-Orscholz (Kurort),Saarland
3278,20030101,20190202,355,48.5376,9.2733,Metzingen,Baden-Wrttemberg
3284,19870101,20190202,240,49.6691,9.0085,Michelstadt,Hessen
3287,19871001,20190202,453,49.7176,9.0997,Michelstadt-Vielbrunn,Hessen
3289,19910101,20190202,355,50.7281,11.7838,Schmieritz-Weltwitz,Th-ringen
3291,19801101,20031231,128,49.712,9.2258,Miltenberg,Bayern
3300,19740501,19930331,155,50.2285,9.1064,Mittel-Gr-ndau,Hessen
3307,19460101,20190202,981,47.4779,11.2653,Mittenwald-Buckelwiesen,Bayern
3313,19360901,19720331,508,49.7328,8.7771,Modautal-Neunkirchen,Hessen
3317,19750701,19840930,42,53.6128,10.6943,M-lln,Schleswig-Holstein
3319,20060901,20190202,239,49.7644,9.253,R-llbach,Bayern
3320,19350101,19530531,49,51.197,6.4499,M-nchengladbach,Nordrhein-Westfalen
3340,19380101,20190202,265,50.4383,7.8061,Montabaur,Rheinland-Pfalz
3348,19900701,20190202,240,51.7209,9.8352,Moringen-Lutterbeck,Niedersachsen
3362,19980101,20190202,244,48.9721,8.8734,M-hlacker,Baden-Wrttemberg
3366,19530101,20190202,406,48.2791,12.5024,M-hldorf,Bayern
3370,19950401,20041130,300,51.2076,10.3956,M-hlhausen,Th-ringen
3376,19490101,20190202,63,52.5176,14.1232,M-ncheberg,Brandenburg
3379,19540601,20190202,515,48.1631,11.5429,M-nchen-Stadt,Bayern
3382,19451101,19531231,521,48.1441,11.6,M-nchen-Bogenhausen,Bayern
3383,18790101,19541231,515,48.1635,11.5019,M-nchen-Botanischer Garten,Bayern
3385,19550101,19990331,515,48.166,11.5011,M-nchen-Nymphenburg,Bayern
3388,19940201,19970131,542,48.0919,11.6486,M-nchen-Perlach,Bayern
3390,19400101,19920516,529,48.1369,11.7094,M-nchen-Riem,Bayern
3402,19460101,20190202,750,48.3851,9.4837,M-nsingen-Apfelstetten,Baden-Wrttemberg
3404,18910101,19911231,62,51.9494,7.5906,M-nster,Nordrhein-Westfalen
3425,19510101,20040531,344,48.9729,9.5708,Murrhardt,Baden-Wrttemberg
3426,19360518,20190202,125,51.566,14.7009,Muskau Bad,Sachsen
3432,19490101,19950331,380,48.5667,8.7184,Nagold,Baden-Wrttemberg
3442,19470101,20190202,149,50.3574,8.7506,Nauheim Bad,Hessen
3478,19760701,20050228,81,53.5468,13.1914,Neubrandenburg,Mecklenburg-Vorpommern
3484,20000701,20190202,380,48.7086,11.2147,Neuburg-Donau (Flugplatz),Bayern
3485,19910601,20190202,486,48.3115,10.3773,Neuburg-Kammel-Langenhaslach,Bayern
3486,19490101,20041231,212,49.2931,9.2722,Neudenau,Baden-Wrttemberg
3490,19480101,20190202,111,50.5346,7.0853,Neuenahr Bad-Ahrweiler,Rheinland-Pfalz
3509,20041001,20190202,77,53.102,13.0421,Menz,Brandenburg
3512,19550101,19771231,820,50.5,11.15,Neuhaus,Th-ringen
3513,19890501,20190202,845,50.5002,11.1344,Neuhaus am Rennweg,Th-ringen
3518,19811001,19931130,793,47.976,8.9101,Neuhausen ob Eck,Baden-Wrttemberg
3519,19931201,20031231,663,47.9519,8.9932,Neuhausen ob Eck-Unterschwandorf,Baden-Wrttemberg
3527,19470101,20190202,500,50.8923,9.405,Neukirchen-Hauptschwenda,Hessen
3532,19510101,19761130,4,54.3609,10.6015,Neuland,Schleswig-Holstein
3537,19360101,20070831,26,54.0873,9.9791,Neum-nster,Schleswig-Holstein
3540,19920901,20190202,195,50.8446,7.372,Neunkirchen-Seelscheid-Krawinkel,Nordrhein-Westfalen
3541,19620801,19920229,185,50.8956,7.3081,Neunkirchen-Seelscheid-Meisenbach,Nordrhein-Westfalen
3545,19700101,20190202,236,49.344,7.2297,Neunkirchen-Wellesweiler,Saarland
3552,19610101,20190202,38,52.9037,12.8072,Neuruppin,Brandenburg
3565,19470101,20020131,315,49.5728,10.6001,Neustadt-Aisch,Bayern
3571,20080301,20190202,452,49.8174,11.8638,Neustadt am Kulm-Filchendorf,Bayern
3575,19510101,19821231,163,49.357,8.1405,Neustadt-Weinstraﬂe,Rheinland-Pfalz
3576,19760101,20021031,125,49.3478,8.1822,Neustadt-Weinstraﬂe (Heidehof),Rheinland-Pfalz
3577,19470101,19760630,64,53.3585,13.0502,Neustrelitz,Mecklenburg-Vorpommern
3578,19811001,20061231,341,48.9832,12.1443,Regensburg-Burgweinting,Bayern
3590,19610101,20050930,180,50.2335,8.8923,Nidderau-Windecken,Hessen
3591,19940101,20190202,350,50.6743,6.424,Nideggen-Schmidt,Nordrhein-Westfalen
3595,19660501,20030630,250,50.4107,7.808,Niederelbert,Rheinland-Pfalz
3603,20000701,20190202,459,49.3895,9.9667,Niederstetten,Baden-Wrttemberg
3605,19510101,19801031,451,48.5334,10.243,Niederstotzingen,Baden-Wrttemberg
3612,19470101,20190202,25,52.6711,9.2229,Nienburg,Niedersachsen
3621,19470101,20190202,435,48.8253,10.5067,Reimlingen,Bayern
3623,20000701,20190202,111,50.8294,6.6602,N-rvenich (Flugplatz),Nordrhein-Westfalen
3631,19470101,20190202,12,53.7123,7.1519,Norderney,Niedersachsen
3639,20000701,20190202,25,53.7647,8.6583,Nordholz (Flugplatz),Niedersachsen
3640,19360101,20061231,24,52.4124,7.064,Nordhorn-Blanke,Niedersachsen
3658,19800701,20050131,303,50.9095,7.5725,N-mbrecht-Distelkamp,Nordrhein-Westfalen
3659,19470101,19950228,627,50.3391,6.9501,N-rburg,Rheinland-Pfalz
3660,19950306,20190202,485,50.3601,6.8697,N-rburg-Barweiler,Rheinland-Pfalz
3666,19360101,19741231,335,49.5008,11.107,N-rnberg-Buchenbuehl,Bayern
3667,19750101,20190202,368,49.4258,11.2538,N-rnberg-Netzstall,Bayern
3668,19550401,20190202,314,49.503,11.0549,N-rnberg,Bayern
3671,19550101,19910331,280,48.6321,9.3261,N-rtingen,Baden-Wrttemberg
3672,19480501,19541231,457,48.6207,8.8962,Nufringen,Baden-Wrttemberg
3679,19470101,20190202,518,47.6187,12.1666,Kiefersfelden-Gach,Bayern
3694,19500601,19811217,810,50.7005,10.7256,Oberhof,Th-ringen
3702,19720101,20061231,515,47.878,7.8288,M-nstertal-Oberm-nstertal,Baden-Wrttemberg
3705,19820701,20041231,480,48.3147,8.5735,Oberndorf-Neckar-Aistaig,Baden-Wrttemberg
3722,19760401,20060531,484,48.2443,11.5528,Oberschleiﬂheim,Bayern
3727,19831001,20010930,800,47.5619,10.0313,Oberstaufen-Kalzhofen,Bayern
3730,19360101,20190202,806,47.3986,10.276,Oberstdorf,Bayern
3734,20040701,20190202,230,49.128,9.3525,Obersulm-Willsbach,Baden-Wrttemberg
3735,19360701,19581231,455,48.2635,12.276,Obertaufkirchen,Bayern
3739,19481001,20190202,596,49.4521,12.4366,Oberviechtach,Bayern
3744,19711201,19750630,125,51.6018,9.5383,Oberweser-Gieselwerder,Hessen
3751,19880601,19971231,626,48.0449,9.8822,Ochsenhausen-Mittelbuch,Baden-Wrttemberg
3752,19590901,19820930,1014,50.03,11.8074,Ochsenkopf,Bayern
3753,19640101,19930331,56,52.2042,7.1784,Ochtrup,Nordrhein-Westfalen
3761,19470101,20190202,276,49.207,9.5175,÷hringen,Baden-Wrttemberg
3776,19571101,19951031,110,50.0946,8.7546,Offenbach-M. (Stadt),Hessen
3777,19580101,20031231,153,48.4593,7.9255,Offenburg,Baden-Wrttemberg
3788,19600601,19851231,305,50.8646,14.7628,Olbersdorf,Sachsen
3790,19470101,19890930,5,53.1018,8.2516,Oldenburg (A),Niedersachsen
3791,19891001,20120930,11,53.1763,8.1824,Oldenburg,Niedersachsen
3811,19780101,20190202,150,51.296,13.0928,Oschatz,Sachsen
3815,19520201,20101130,95,52.2553,8.0534,Osnabr-ck,Niedersachsen
3818,19560101,19661231,29,52.7167,11.7333,Osterburg,Sachsen-Anhalt
3821,19840801,20190202,246,51.0873,11.9292,Osterfeld,Sachsen-Anhalt
3825,19610101,19771231,338,49.5033,7.2773,Osterhof,Saarland
3836,19720501,20190202,312,50.4538,10.2211,Ostheim v.d. Rh-n,Bayern
3856,19490101,19930630,1010,47.6383,10.4313,Oy-Mittelberg,Bayern
3857,19931001,20190202,885,47.6362,10.3892,Oy-Mittelberg-Petersthal,Bayern
3867,19500101,19561231,7,53.0643,7.4814,Papenburg,Niedersachsen
3875,19500101,20190202,549,49.151,11.6896,Parsberg-Oberpfalz-Eglwang,Bayern
3878,19360101,19571231,327,48.5807,13.4152,Passau-Maierhof,Bayern
3879,19480101,19970103,409,48.5779,13.4694,Passau-Oberhaus,Bayern
3883,19910101,19980131,442,50.5999,11.9966,Pausa-Unterreichenau,Sachsen
3897,19980101,20190202,2,54.0893,10.8773,Pelzerhaken,Schleswig-Holstein
3903,19510101,20040930,175,49.5114,6.3857,Perl-Besch,Saarland
3904,19650101,20190202,152,49.5354,6.3789,Perl-Nennig,Saarland
3915,19470101,19501231,145,51.9893,13.3608,Petkus,Brandenburg
3922,19751101,20010630,435,49.1162,10.8598,Pfofeld-Langlau,Bayern
3924,19370101,20050831,246,48.9059,8.7412,Pforzheim-Eutingen,Baden-Wrttemberg
3925,20050901,20190202,333,48.9329,8.6973,Pforzheim-Ispringen,Baden-Wrttemberg
3927,19580101,20190202,630,47.9344,9.2869,Pfullendorf,Baden-Wrttemberg
3929,19480101,19850930,100,49.2511,8.4415,Philippsburg,Baden-Wrttemberg
3939,19500101,20190202,385,49.1912,7.5879,Pirmasens,Rheinland-Pfalz
3946,18820101,20190202,386,50.4819,12.13,Plauen,Sachsen
3955,19500101,19970131,24,54.159,10.402,Pl-n (See),Schleswig-Holstein
3974,19490301,19930630,368,49.5058,11.5142,Pommelsbrunn,Bayern
3975,19930901,20190202,522,49.4777,11.5357,Pommelsbrunn-Mittelburg,Bayern
3987,18930101,20190202,81,52.3813,13.0622,Potsdam,Brandenburg
3988,18930101,20181231,81,52.3822,13.0622,Potsdam (S-kularstation),Brandenburg
4005,19460101,19571231,530,47.8588,12.3624,Prien-Stock,Bayern
4018,19510101,19830831,550,48.1877,11.2206,Puch,Bayern
4024,18530701,20190202,40,54.3643,13.4771,Putbus,Mecklenburg-Vorpommern
4029,19400101,19571231,25,52.6691,7.9544,Quakenbr-ck,Niedersachsen
4032,19910101,20190202,142,51.7953,11.132,Quedlinburg,Sachsen-Anhalt
4036,19950501,20190202,204,51.3895,11.5412,Querfurt-M-hle Lodersleben,Sachsen-Anhalt
4038,19470101,19770630,27,53.7276,9.9071,Quickborn (Kurzer Kamp),Schleswig-Holstein
4039,19741201,20190202,11,53.7331,9.8776,Quickborn,Schleswig-Holstein
4053,19530101,19961231,407,47.7458,9.0007,Radolfzell-Markelfingen,Baden-Wrttemberg
4063,19510101,20190202,41,52.4461,8.5906,Rahden-Kleinendorf,Nordrhein-Westfalen
4066,19861101,19990131,553,47.9091,11.1048,Raisting,Bayern
4077,19370101,19390731,114,48.8471,8.1869,Rastatt,Baden-Wrttemberg
4079,19470101,20050630,200,51.1765,11.4183,Rastenberg,Th-ringen
4091,19620701,19980630,1640,47.7327,12.6827,Rauschberg bei Ruhpolding,Bayern
4094,19460101,20190202,440,47.8062,9.6206,Weingarten Kr. Ravensburg,Baden-Wrttemberg
4100,19540101,19731231,109,51.6243,7.182,Recklinghausen,Nordrhein-Westfalen
4104,19470101,20190202,365,49.0424,12.1021,Regensburg,Bayern
4125,19450101,20061130,470,47.7238,12.874,Reichenhall Bad,Bayern
4127,19911001,20190202,350,50.9906,7.6958,Reichshof-Eckenhagen,Nordrhein-Westfalen
4149,19470101,19621231,764,50.5602,13.2222,Marienberg-Reitzenhain,Sachsen
4152,19710101,19771231,760,47.6783,8.1527,Remetschwiel,Baden-Wrttemberg
4154,20110201,20180630,345,51.18,7.2505,Remscheid-Lennep,Nordrhein-Westfalen
4156,19731001,19980228,8,54.2878,9.6749,Rendsburg,Schleswig-Holstein
4157,19850601,20031130,315,50.5052,7.4881,Rengsdorf (Kurort),Rheinland-Pfalz
4160,20040701,20190202,478,48.7425,8.924,Renningen-Ihinger Hof,Baden-Wrttemberg
4166,19880501,20021231,360,48.5051,9.1833,Reutlingen-Betzingen,Baden-Wrttemberg
4169,19580101,20190202,131,48.6703,7.9939,Rheinau-Memprechtshofen,Baden-Wrttemberg
4174,20000701,20171219,40,52.2887,7.3866,Rheine-Bentlage,Nordrhein-Westfalen
4175,19530901,20190202,282,47.559,7.7721,Rheinfelden,Baden-Wrttemberg
4177,19480101,20190202,116,48.9726,8.3301,Rheinstetten,Baden-Wrttemberg
4189,20040801,20190202,533,48.1479,9.4596,Altheim Kreis Biberach,Baden-Wrttemberg
4222,19630101,20060131,464,50.5263,12.4091,Rodewisch,Sachsen
4233,19360403,19531130,397,50.3833,9.5167,R-hrigshof bei Schl-chtern,Hessen
4240,19480101,19920930,440,50.6407,6.2058,Roetgen,Nordrhein-Westfalen
4261,19500101,20190202,444,47.8754,12.128,Rosenheim,Bayern
4271,19470101,20190131,4,54.1803,12.0808,Rostock-Warnem-nde,Mecklenburg-Vorpommern
4275,19460101,20190202,32,53.1288,9.3398,Rotenburg (W-mme),Niedersachsen
4278,19510101,20081231,340,49.2511,11.0934,Roth bei N-rnberg,Bayern
4280,20000701,20190202,386,49.2164,11.1036,Roth,Bayern
4287,19470601,20190202,415,49.3848,10.1732,Rothenburg ob der Tauber,Bayern
4288,19510101,19750831,95,52.1038,8.1808,Rothenfelde Bad,Niedersachsen
4293,19580101,20051130,747,47.6819,11.7714,Rottach-Egern,Bayern
4294,19790701,20021031,360,48.4704,8.9687,Rottenburg-Kiebingen,Baden-Wrttemberg
4300,19570201,20190202,588,48.1814,8.6356,Rottweil,Baden-Wrttemberg
4301,19470101,20190202,102,49.8502,7.871,Kreuznach Bad,Rheinland-Pfalz
4318,19710601,20061231,692,47.731,12.661,Ruhpolding,Bayern
4320,19880601,19920930,36,54.0934,10.2223,Ruhwinkel,Schleswig-Holstein
4323,19690101,20190202,461,49.6468,7.8837,Ruppertsecken,Rheinland-Pfalz
4327,19530301,19710716,797,48.8765,13.049,Rusel-Irlmoos,Bayern
4330,19520101,19800331,449,48.8026,8.9557,Rutesheim,Baden-Wrttemberg
4332,19470501,19591231,235,50.6563,11.3894,Saalfeld,Th-ringen
4336,19510101,20190202,320,49.2128,7.1077,Saarbr-cken-Ensheim,Saarland
4339,19480101,20010331,193,49.2231,7.0168,Saarbr-cken-Sankt Johann,Saarland
4343,19790101,19970930,180,49.3256,6.7354,Saarlouis,Saarland
4347,19480101,20000131,292,51.5909,10.5691,Sachsa Bad,Niedersachsen
4349,19871101,20190202,248,48.9569,9.071,Sachsenheim,Baden-Wrttemberg
4350,19660101,20081231,339,47.5619,7.9399,S-ckingen Bad,Baden-Wrttemberg
4354,19850901,20190202,456,48.7832,13.3146,Saldenburg-Entschenreuth,Bayern
4364,19650101,19991231,138,52.0355,10.3054,Salzgitter-Ringelheim,Niedersachsen
4367,19920401,20061231,175,52.0781,9.552,Salzhemmendorf-Lauenstein,Niedersachsen
4371,19350101,20190202,135,52.1042,8.7521,Salzuflen Bad,Nordrhein-Westfalen
4373,19470101,19661231,29,52.8568,11.1319,Salzwedel,Sachsen-Anhalt
4377,19650101,20190202,510,50.3517,10.0034,Sandberg,Bayern
4386,19470101,20061231,795,47.761,8.1247,Sankt Blasien,Baden-Wrttemberg
4390,19630101,20041231,896,48.0091,8.0966,Sankt M-rgen,Baden-Wrttemberg
4391,19510401,19691031,3,53.9878,9.1125,Sankt Michaelisdonn,Schleswig-Holstein
4393,19510101,20190202,5,54.3279,8.6031,Sankt Peter-Ording,Schleswig-Holstein
4396,19510101,19601231,400,49.4672,7.2036,Sankt Wendel-Hof,Saarland
4397,19780201,20051231,400,49.5025,7.202,Sankt Wendel-Urweiler,Saarland
4401,19500101,19800630,81,51.6334,8.1872,Sassendorf Bad-Ostinghausen,Nordrhein-Westfalen
4411,19791201,20190202,155,49.9195,8.9671,Schaafheim-Schlierbach,Hessen
4419,19470101,20041231,212,47.9556,7.7134,Schallstadt-Mengen,Baden-Wrttemberg
4425,19510101,19651231,569,49.4864,7.029,Schaumberg-Tholey,Saarland
4429,19811201,19940831,778,47.588,9.85,Scheidegg,Bayern
4433,19870101,20041231,519,48.1994,9.77,Schemmerhofen-Ingerkingen,Baden-Wrttemberg
4436,19470101,19511231,314,50.8166,9.846,Schenklengsfeld,Hessen
4438,19921201,20061231,317,49.975,11.0395,Scheﬂlitz,Bayern
4442,19810101,20071231,155,51.9119,9.1533,Schieder,Nordrhein-Westfalen
4445,19470101,20190202,609,51.7658,10.6533,Wernigerode-Schierke,Sachsen-Anhalt
4464,19890801,20190202,501,50.5679,11.8041,Schleiz,Th-ringen
4466,19470101,20190202,43,54.5275,9.5487,Schleswig,Schleswig-Holstein
4468,19530101,19730731,19,54.5227,9.5649,Schleswig-Stadtfeld,Schleswig-Holstein
4471,19790101,19850731,780,47.7358,11.8505,Schliersee (A),Bayern
4474,19540101,19731231,170,49.7961,7.7583,Schlossb-ckelheim,Rheinland-Pfalz
4477,19570101,20050930,993,47.8208,8.186,Schluchsee,Baden-Wrttemberg
4479,19540101,19850930,375,50.3849,9.5358,Schl-chtern-Kloster Gomfritz,Hessen
4480,19851001,20190202,230,50.3447,9.5534,Schl-chtern-Herolz,Hessen
4484,19610101,19710331,45,53.6615,10.2543,Schmalenbeck,Schleswig-Holstein
4485,20050201,20170228,296,50.725,10.4539,Schmalkalden Kurort,Th-ringen
4489,19470101,19621231,198,51.8833,10.7667,Schmatzfeld,Sachsen-Anhalt
4490,19660101,20021231,223,49.4149,6.836,Schmelz-H-ttersdorf,Saarland
4501,19471101,20190202,937,50.6546,10.7693,Schm-cke,Th-ringen
4505,19470101,19870131,650,50.4988,12.4534,Schnarrtanne-Vogelsgr-n,Sachsen
4508,19530101,20190202,649,50.2968,6.4194,Schneifelforsthaus,Rheinland-Pfalz
4517,19470101,20041231,635,48.7859,8.6451,Sch-mberg Kr. Calw,Baden-Wrttemberg
4548,20070701,20190202,609,50.2046,12.1435,Selb-Oberfranken-Lauterbach,Bayern
4549,19770501,20100930,1021,48.1002,8.1969,Sch-nwald-Schwarzwald,Baden-Wrttemberg
4556,19730101,20000831,904,48.1402,8.1991,Schonach,Baden-Wrttemberg
4557,19530101,20021031,400,47.6463,7.8439,Schopfheim-Eichen,Baden-Wrttemberg
4559,19960501,20190202,399,49.1643,12.6175,Schorndorf-Kn-bling,Bayern
4560,19490101,20190202,265,50.4925,9.1226,Schotten,Hessen
4571,19690601,19970331,504,51.8369,10.4312,Schulenberg,Niedersachsen
4576,19770401,19810731,343,49.3261,11.012,Schwabach (A),Bayern
4581,19510101,20021031,415,48.7768,9.8025,Schw-bisch Gm-nd-Strassdorf,Baden-Wrttemberg
4582,19830401,20010731,349,49.0817,9.6868,Schw-bisch Hall-Bibersfeld,Baden-Wrttemberg
4584,19700401,19790531,444,48.3667,11.8,Schwaigermoos,Bayern
4586,19910101,19980630,320,50.1394,8.0627,Schwalbach Bad,Hessen
4592,19551021,20190202,356,49.3278,12.087,Schwandorf,Bayern
4593,19950701,19991130,117,51.9639,11.1208,Schwanebeck,Sachsen-Anhalt
4597,19450101,20101231,792,47.5769,10.7181,Schwangau-Horn,Bayern
4605,19910101,20190202,277,50.644,11.1937,Schwarzburg,Th-ringen
4606,19600101,19801231,116,51.5167,14.35,Schwarze Pumpe,Brandenburg
4612,19360101,19650630,418,50.5513,12.7678,Schwarzenberg,Sachsen
4621,19580501,20031231,240,50.0575,10.216,Schweinfurt-Gartenstadt,Bayern
4625,18900101,20190202,59,53.6425,11.3872,Schwerin,Mecklenburg-Vorpommern
4629,19740701,19991130,37,54.5166,9.142,Schwesing,Schleswig-Holstein
4642,19761001,20190202,21,52.8911,11.7297,Seehausen,Sachsen-Anhalt
4649,19470101,19560531,214,50.8698,7.3228,Seelscheid,Nordrhein-Westfalen
4651,19370101,20190202,186,51.904,10.1885,Seesen,Niedersachsen
4656,19510101,19730630,49,53.9278,10.2993,Segeberg Bad,Schleswig-Holstein
4664,19410101,20000630,611,50.1969,12.1727,Selb-Oberfranken-Wildenau,Bayern
4692,19370101,20181130,229,50.8534,7.9966,Siegen (Kl-ranlage),Nordrhein-Westfalen
4702,20000702,20071101,645,48.1,9.25,Sigmaringen (Flugplatz),Baden-Wrttemberg
4703,19510101,20190202,580,48.0719,9.1942,Sigmaringen-Laiz,Baden-Wrttemberg
4704,19880501,20190202,507,47.5776,9.7404,Sigmarszell-Zeisertsweiler,Bayern
4705,19470101,19531210,819,49.7595,12.3891,Silberh-tte,Bayern
4706,19810101,20190202,360,48.2719,13.0273,Simbach-Inn,Bayern
4709,19790401,20190202,445,49.9996,7.5981,Simmern-Wahlbach,Rheinland-Pfalz
4719,19980101,20070828,169,49.2447,8.8787,Sinsheim,Baden-Wrttemberg
4729,19890701,20040229,342,50.2882,9.4583,Steinau-Seidenroth,Hessen
4741,19360101,20021231,154,51.1402,7.093,Solingen-Hohenscheid,Nordrhein-Westfalen
4745,19470721,20190202,75,52.9604,9.793,Soltau,Niedersachsen
4748,19470101,20101231,221,51.352,10.9059,Sondershausen,Th-ringen
4752,19510101,20080630,626,50.3746,11.1828,Sonneberg-Neufang,Th-ringen
4763,19610101,20190202,265,51.0607,9.9266,Sontra,Hessen
4765,19510101,19801231,199,51.2801,9.9849,Sooden-Allendorf Bad,Hessen
4775,19520101,19651231,424,49.7858,11.8211,Speinshart,Bayern
4782,19910101,19911231,87,51.604,12.1093,Sp-ren-Prussendorf,Sachsen-Anhalt
4818,19640401,20001231,598,50.1531,11.7403,Stammbach-Querenbach,Bayern
4837,19851201,19900930,363,47.9869,7.9466,Stegen,Baden-Wrttemberg
4841,19981001,20190202,1,53.6946,8.8735,Steinau Kr. Cuxhaven,Niedersachsen
4847,19700101,19751231,500,51.3629,9.6902,Steinberg,Niedersachsen
4857,19901101,20190202,1,53.5534,9.6097,Mittelnkirchen-Hohenfelde,Niedersachsen
4878,19470101,20190202,504,51.6646,10.8811,Oberharz am Brocken-Stiege,Sachsen-Anhalt
4881,19771001,19940731,532,47.8591,9.0152,Stockach,Baden-Wrttemberg
4887,19470101,20190202,734,48.6657,9.8646,St-tten,Baden-Wrttemberg
4896,19741201,20190202,40,54.6654,9.805,Wagersrott,Schleswig-Holstein
4911,19510101,20190202,350,48.8275,12.5598,Straubing,Bayern
4926,19460101,20130513,224,48.7896,9.2167,Stuttgart (Neckartal),Baden-Wrttemberg
4927,19510101,19840731,286,48.7693,9.1814,Stuttgart-Stadt,Baden-Wrttemberg
4928,19580101,20190202,314,48.8282,9.2,Stuttgart (Schnarrenberg),Baden-Wrttemberg
4931,19530101,20190202,371,48.6883,9.2235,Stuttgart-Echterdingen,Baden-Wrttemberg
4933,19000101,19770630,401,48.7091,9.2147,Stuttgart-Hohenheim,Baden-Wrttemberg
4939,19470101,19581231,235,51.7333,11.1167,Suderode Bad,Sachsen-Anhalt
4977,19930101,20020430,45,52.5447,11.9724,Tangerm-nde,Sachsen-Anhalt
4978,19860101,20190202,395,50.639,10.0228,Tann-Rh-n,Hessen
4987,19860501,20040630,179,49.6122,9.6747,Tauberbischofsheim-Dittigheim,Baden-Wrttemberg
4996,19360101,19991031,837,47.7099,11.7639,Tegernsee,Bayern
4997,19941001,20190202,196,50.9771,12.3419,Starkenberg-Tegkwitz,Th-ringen
5009,19470101,20190202,38,53.761,12.5574,Teterow,Mecklenburg-Vorpommern
5014,19520101,20190202,7,53.2758,8.9857,Worpswede-H-ttenbusch,Niedersachsen
5017,19480101,20190202,633,50.4002,11.3889,Teuschnitz,Bayern
5024,19470101,19501231,61,52.2333,12.05,Theeﬂen,Sachsen-Anhalt
5029,19750601,20190202,386,49.4738,7.0386,Tholey,Saarland
5032,19860501,20031231,197,49.885,9.8469,Th-ngersheim,Bayern
5039,19910101,19981231,236,50.843,10.1613,Tiefenort,Th-ringen
5046,19670101,20190202,500,49.8576,12.3542,Tirschenreuth-Loderm-hl,Bayern
5047,19480101,19951231,870,47.9394,8.1933,Titisee-Neustadt-Langenordnach,Baden-Wrttemberg
5049,19570101,20050228,846,47.8991,8.146,Titisee-Neustadt-Titisee,Baden-Wrttemberg
5059,19821001,20021231,781,47.728,7.9988,Todtmoos,Baden-Wrttemberg
5063,19360101,20070531,724,47.7566,11.5819,T-lz Bad,Bayern
5064,20041201,20190202,37,51.2897,6.4437,T-nisvorst,Nordrhein-Westfalen
5067,19370101,19660930,491,51.7643,9.5628,Torfhaus im Solling,Niedersachsen
5068,19360101,19901231,80,51.5833,13,Torgau,Sachsen
5074,19360101,19601231,626,47.8663,12.6566,Traunstein-Sparz,Bayern
5075,19711001,20040630,635,47.8516,12.6182,Traunstein-Axdorf,Bayern
5078,19400101,20010930,2,53.9619,10.8892,Travem-nde,Schleswig-Holstein
5088,19910101,20001231,3,54.5337,13.246,Trent,Mecklenburg-Vorpommern
5094,19490101,20011231,683,48.1316,8.2283,Triberg,Baden-Wrttemberg
5095,19750701,19880630,700,48.1288,8.233,Triberg (Kurpark),Baden-Wrttemberg
5097,19910101,20190202,10,54.0661,12.7675,Tribsees,Mecklenburg-Vorpommern
5099,19070501,20190202,132,49.7326,6.6131,Trier-Zewen,Rheinland-Pfalz
5100,19480101,20190202,265,49.7479,6.6582,Trier-Petrisberg,Rheinland-Pfalz
5105,19470101,19730228,700,48.3132,9.2472,Trochtelfingen,Baden-Wrttemberg
5107,19880601,20031231,769,48.2814,9.3137,Trochtelfingen-Wilsingen,Baden-Wrttemberg
5109,20000701,20190202,69,53.5997,13.3039,Trollenhagen,Mecklenburg-Vorpommern
5111,19450101,20190202,559,48.0311,12.5396,Trostberg,Bayern
5120,19500101,19820430,370,48.5198,9.0515,T-bingen,Baden-Wrttemberg
5127,19910201,20031231,649,48.0083,8.8179,Tuttlingen,Baden-Wrttemberg
5128,19810601,19901231,668,47.9682,8.79,Tuttlingen-M-hringen-Vorstadt,Baden-Wrttemberg
5133,19980601,20190202,295,51.3344,8.9132,Twistetal-M-hlhausen,Hessen
5138,19460101,20031231,446,47.7713,9.1562,‹berlingen-Bodensee,Baden-Wrttemberg
5142,19470101,20190202,1,53.7444,14.0697,Ueckerm-nde,Mecklenburg-Vorpommern
5146,19510101,20190202,50,52.9414,10.5289,Uelzen,Niedersachsen
5149,19510301,20190202,308,49.5741,10.1916,Gollhofen,Bayern
5155,19440101,20140831,567,48.3837,9.9524,Ulm,Baden-Wrttemberg
5158,19871201,20190202,162,52.1601,11.1759,Ummendorf,Sachsen-Anhalt
5165,19480201,20061231,95,52.8499,10.2898,Unterl-ﬂ,Niedersachsen
5174,19750101,20051231,471,48.4951,9.4003,Urach Bad,Baden-Wrttemberg
5185,19711101,20061231,291,49.5933,11.0704,Uttenreuth,Bayern
5229,19470101,20190202,720,48.0453,8.4608,Villingen-Schwenningen,Baden-Wrttemberg
5236,19590101,19791231,51,52.8318,8.3112,Visbek,Niedersachsen
5244,19610101,19820228,220,49.2581,6.8612,V-lklingen-Stadt,Saarland
5245,19780101,19990831,187,49.2495,6.8804,V-lklingen (Kraftwerk-Fenne),Saarland
5250,19360101,20031231,223,48.0908,7.6353,Vogtsburg-Oberrotweil,Baden-Wrttemberg
5252,19470101,19571231,100,52.103,9.5845,Voldagsen,Niedersachsen
5267,19630601,19751231,86,52.0722,11.0222,Wackersleben,Sachsen-Anhalt
5275,19851001,20190202,105,49.2445,8.5374,Wagh-usel-Kirrlach,Baden-Wrttemberg
5277,19980101,20090630,349,50.8119,9.128,Wahlen,Hessen
5279,19510101,20190202,176,51.6194,9.5749,Wahlsburg-Lippoldsberg,Hessen
5280,19810401,20190202,35,53.9224,10.2267,Wittenborn,Schleswig-Holstein
5282,19170101,19740630,246,51.1197,13.6744,Wahnsdorf bei Dresden,Sachsen
5284,19780101,19911231,224,48.8279,9.3228,Waiblingen,Baden-Wrttemberg
5289,19830101,20080430,595,48.4918,8.5612,Waldachtal-L-tzenhardt,Baden-Wrttemberg
5291,19480101,19611231,1005,47.976,8.1558,Waldau-Jostal,Baden-Wrttemberg
5296,19470101,19890430,376,51.207,9.0658,Waldeck,Hessen
5300,19510101,20190202,380,50.2596,8.3607,Waldems-Reinborn,Hessen
5306,19711201,20031231,940,48.9293,13.4641,Waldh-user (National Park),Bayern
5317,19490101,19571231,509,50.0097,12.2979,Waldsassen,Bayern
5320,19530101,19910630,330,47.6172,8.2388,Waldshut,Baden-Wrttemberg
5335,19910101,20190130,348,50.8963,10.5484,Waltershausen,Th-ringen
5344,19410301,20061231,2,53.7865,7.9096,Wangerooge,Niedersachsen
5347,19980101,20190202,236,51.504,9.1118,Warburg,Nordrhein-Westfalen
5349,19470101,20190202,73,53.5196,12.6654,Waren (M-ritz),Mecklenburg-Vorpommern
5361,19490101,20051231,270,50.6271,9.442,Wartenberg-Angersbach,Hessen
5369,19490101,19931231,443,48.0572,12.2202,Wasserburg,Bayern
5371,19360101,20190202,921,50.4973,9.9428,Wasserkuppe,Hessen
5377,19480101,19530930,1923,47.5714,12.9337,Watzmannhaus,Bayern
5397,19470101,20190202,440,49.6663,12.1845,Weiden,Bayern
5398,19480101,19710630,425,49.1965,10.6487,Weidenbach Kr.Ansbach,Bayern
5403,19911101,20041231,309,49.59,10.2588,Weigenheim-Reusch,Bayern
5404,19360701,20190202,477,48.4025,11.6946,Weihenstephan-D-rnast,Bayern
5410,19470101,19930630,150,50.4732,8.2588,Weilburg (Kl-ranlage),Hessen
5419,19510101,20070630,264,50.9751,11.3076,Weimar,Th-ringen
5424,19490301,20190202,328,51.0177,11.3544,Weimar-Sch-ndorf,Th-ringen
5426,19530101,20190202,553,49.3758,8.1213,Weinbiet,Rheinland-Pfalz
5429,19530101,19840630,219,49.1512,9.292,Weinsberg,Baden-Wrttemberg
5431,19470101,19760930,24,53.0333,11.8,Weisen bei Wittenberge,Sachsen-Anhalt
5433,19570101,20190202,380,49.5534,6.812,Weiskirchen-Saar,Saarland
5434,19510101,19920531,317,50.0858,11.2364,Weismain,Bayern
5435,19810101,20031231,455,48.8457,8.9073,Weissach,Baden-Wrttemberg
5440,19360101,20190202,439,49.0116,10.9308,Weiﬂenburg-Emetzheim,Bayern
5442,19490401,20051231,109,51.2002,11.9154,Weiﬂenfels,Sachsen-Anhalt
5445,19910101,20071231,165,51.212,10.9956,Weiﬂensee-Ottenhausen,Th-ringen
5453,19920601,20031231,173,48.188,7.6977,Weisweil-Waldeckhof,Baden-Wrttemberg
5460,19781201,19840731,655,48.1477,8.6954,Wellendingen,Baden-Wrttemberg
5463,19941201,20000131,58,52.0654,14.6898,Wellmitz,Brandenburg
5467,19510101,20120921,1832,47.7035,12.0119,Wendelstein,Bayern
5480,20030910,20190202,85,51.5763,7.8879,Werl,Nordrhein-Westfalen
5488,19490101,19860331,216,49.9622,10.0482,M-hlhausen Kr. Schweinfurt,Bayern
5490,19470101,20190202,233,51.8454,10.7686,Wernigerode,Sachsen-Anhalt
5498,19470710,20041130,140,49.7667,9.5428,Wertheim-Eichel,Baden-Wrttemberg
5514,19360101,19611231,3,54.8991,8.3123,Westerland,Schleswig-Holstein
5516,19480101,20190202,3,54.5284,11.0605,Fehmarn,Schleswig-Holstein
5533,19901201,20031231,351,51.617,10.5843,Wieda,Niedersachsen
5538,19990201,20190202,550,47.8827,11.1576,Wielenbach (Demollstr.),Bayern
5540,19360101,20120630,147,50.0681,8.2603,Wiesbaden (S-d),Hessen
5541,19870601,20190202,263,50.132,8.317,Wiesbaden-Auringen,Hessen
5543,19600101,19860731,235,50.0863,8.1872,Wiesbaden-Dotzheim,Hessen
5546,19860601,20190202,187,52.1207,12.4585,Wiesenburg,Brandenburg
5559,19490101,20010630,385,48.7848,8.5764,Wildbad Bad-Calmbach,Baden-Wrttemberg
5560,19460101,20031130,740,48.7501,8.5365,Wildbad Bad-Sommerberg,Baden-Wrttemberg
5562,19950401,20190202,570,48.6516,8.6801,Neubulach-Oberhaugstett,Baden-Wrttemberg
5568,19470101,20010331,310,51.1056,9.1081,Wildungen Bad,Hessen
5575,19530101,19980630,1,53.5901,8.106,Wilhelmshaven,Niedersachsen
5582,19400101,20051231,580,51.294,8.6026,Willingen-Upland,Hessen
5583,19830801,20060131,594,51.2818,8.6673,Willingen-Upland-Usseln,Hessen
5609,19940801,20020331,240,48.8031,9.4699,Winterbach Rems-Murr-Kreis,Baden-Wrttemberg
5610,19700201,20081231,681,51.1968,8.5268,Winterberg,Nordrhein-Westfalen
5624,19470101,19501231,13,53.9026,11.4254,Wismar,Mecklenburg-Vorpommern
5629,19470101,20190202,105,51.8892,12.6445,Wittenberg,Sachsen-Anhalt
5640,20000701,20190202,8,53.5504,7.6672,Wittmundhafen,Niedersachsen
5642,20000702,20010928,72,53.1833,12.5167,Wittstock,Brandenburg
5643,19940301,20190202,66,53.1864,12.4949,Wittstock-Rote M-hle,Brandenburg
5644,19480101,19990831,133,51.3493,9.8438,Witzenhausen,Hessen
5654,19480701,20071231,464,49.2178,10.2296,W-rnitz-Bottenweiler,Bayern
5663,19790101,19901231,118,53.4618,13.6099,Woldegk,Mecklenburg-Vorpommern
5664,19580101,20190202,291,48.2953,8.2391,Wolfach,Baden-Wrttemberg
5665,19791001,20041231,677,47.818,9.797,Wolfegg,Baden-Wrttemberg
5675,19610101,19810331,56,52.4411,10.7587,Wolfsburg,Niedersachsen
5676,19810401,20190202,82,52.3962,10.6892,Wolfsburg (S-dwest),Niedersachsen
5681,19810901,19981231,200,49.5811,7.6234,Wolfstein-Pfalz,Rheinland-Pfalz
5688,20181101,20190202,880,47.7003,8.1057,Dachsberg-Wolpadingen,Baden-Wrttemberg
5692,19360101,20190202,88,49.6051,8.3659,Worms,Rheinland-Pfalz
5703,19510101,19860131,170,49.7964,9.8949,W-rzburg (Kl-rwerk),Bayern
5705,19470101,20190202,268,49.7703,9.9577,W-rzburg,Bayern
5707,19010101,19530131,175,49.7995,9.928,W-rzburg (Physikalisches-Institut),Bayern
5715,20000701,20190202,57,52.4605,9.4311,Wunstorf,Niedersachsen
5717,19370101,20190202,134,51.2256,7.1052,Wuppertal-Buchenhofen,Nordrhein-Westfalen
5719,20041001,20091210,235,51.2051,7.2,Remscheid,Nordrhein-Westfalen
5728,19520401,19811231,35,52.8039,12.8714,Wustrau-Ziethenhorst,Brandenburg
5731,19610101,20190202,398,47.6783,8.3801,Wut-schingen-Ofteringen,Baden-Wrttemberg
5732,18870701,20030630,8,54.6928,8.5271,Wrixum-F-hr,Schleswig-Holstein
5745,19480701,20190202,51,52.9664,13.3268,Zehdenick,Brandenburg
5750,19520901,20190202,264,51.0314,12.1495,Zeitz,Sachsen-Anhalt
5761,19031101,19801231,69,51.9642,12.0996,Zerbst,Sachsen-Anhalt
5778,19910101,20040731,2,54.0801,13.8989,Zinnowitz,Mecklenburg-Vorpommern
5779,19710101,20190202,877,50.7314,13.7516,Zinnwald-Georgenfeld,Sachsen
5792,19000801,20190202,2964,47.4209,10.9847,Zugspitze,Bayern
5797,18631203,20190202,353,50.6878,12.4329,Lichtentanne,Sachsen
5800,19980101,20190202,615,49.028,13.2385,Zwiesel,Bayern
5802,19480101,20030930,615,49.0007,13.2137,Zwieselberg,Bayern
5821,19610101,19761231,36,52.8482,8.719,Bassum (A),Niedersachsen
5822,19751001,20190202,40,52.863,8.6988,Bassum,Niedersachsen
5825,19530701,20190202,40,52.6198,12.7867,Berge,Brandenburg
5832,19460101,19541130,50,53.1007,11.0455,Dannenberg,Niedersachsen
5839,19970701,20190202,0,53.3881,7.2287,Emden,Niedersachsen
5840,19740601,20050331,600,48.6669,8.4699,Enzkl-sterle,Baden-Wrttemberg
5856,19970103,20190202,476,48.5451,13.3531,F-rstenzell,Bayern
5871,19981101,20190202,497,49.9462,7.2645,Hahn,Rheinland-Pfalz
5885,19510101,19770531,289,48.6582,9.4203,Kirchheim-Teck-÷tlingen,Baden-Wrttemberg
5890,19510101,19910731,850,47.6777,11.0473,Kohlgrub Bad (A),Bayern
5898,19490301,19840630,287,48.8943,9.2058,Ludwigsburg,Baden-Wrttemberg
5904,19780501,20050131,431,48.6493,11.7772,Mainburg,Bayern
5906,19360101,20190202,98,49.5062,8.5585,Mannheim,Baden-Wrttemberg
5912,19500101,20031231,169,51.0989,9.538,Malsfeld,Hessen
5920,19500101,19970731,91,50.4485,7.4275,Neuwied,Rheinland-Pfalz
5930,19980101,20190202,1,54.641,10.0238,Sch-nhagen (Ostseebad),Schleswig-Holstein
5941,19450101,20190202,685,47.6754,12.4698,Reit im Winkl,Bayern
5971,19510101,19630228,510,48.8787,9.6342,Welzheim (A),Baden-Wrttemberg
6086,19971101,20000630,71,52.7786,13.759,Melchow-Sch-nholz,Brandenburg
6093,19980201,20190202,62,53.2139,10.4704,Wendisch Evern,Niedersachsen
6095,19980501,19990930,273,51.0838,13.4486,Taubenheim-Seeligstadt,Sachsen
6105,19980601,20190202,14,54.3194,9.8051,Ostenfeld (Rendsburg),Schleswig-Holstein
6109,19981001,20190202,50,53.3837,14.3728,Grambow-Schwennenz,Mecklenburg-Vorpommern
6110,19980901,20040831,11,53.8545,13.4949,Medow-Wussentin,Mecklenburg-Vorpommern
6112,19981001,20000131,2,54.267,13.143,Stralsund-Devin,Mecklenburg-Vorpommern
6129,19990501,20190202,290,51.0593,14.4266,Sohland-Spree,Sachsen
6157,19990201,20190202,8,53.641,8.0808,Wangerland-Hooksiel,Niedersachsen
6158,19990701,20190202,455,49.2247,10.6084,Weidenbach-Weiherschneidbach,Bayern
6159,19590301,20190202,8,52.9542,7.3196,D-rpen,Niedersachsen
6163,19991004,20190202,27,54.1654,10.3519,D-rnick,Schleswig-Holstein
6170,20000201,20190202,40,52.0192,14.7254,Coschen,Brandenburg
6182,20000401,20120327,404,48.7757,12.1743,Mallersdorf-Pfaffenberg,Bayern
6184,20000701,20090615,6,53.5333,8.1667,Wilhelmshaven (Flugplatz),Niedersachsen
6186,20000401,20190202,268,50.1989,7.8651,Nast-tten,Rheinland-Pfalz
6196,20000901,20011130,610,50.1587,12.0386,Selb-Spielberg,Bayern
6197,20001011,20190202,258,51.8664,9.2709,L-gde-Paenbruch,Nordrhein-Westfalen
6199,20000801,20190202,16,54.2484,13.0418,Steinhagen-Negast,Mecklenburg-Vorpommern
6217,20010401,20190202,190,49.2406,6.9351,Saarbr-cken-Burbach,Saarland
6219,20010701,20011031,394,48.8768,11.1043,Dollnstein-Breitenfurt,Bayern
6258,20030101,20190202,459,47.6845,9.4409,Friedrichshafen-Unterraderach,Baden-Wrttemberg
6259,20040601,20190202,523,49.021,9.6032,Groﬂerlach-Mannenweiler,Baden-Wrttemberg
6260,20021201,20190202,385,49.3328,9.704,Ingelfingen-Stachenhausen,Baden-Wrttemberg
6262,20021101,20190202,413,48.7695,9.8737,Schw-bisch Gm-nd-Weiler,Baden-Wrttemberg
6263,20040701,20190202,445,47.7738,8.8219,Singen,Baden-Wrttemberg
6264,20040601,20190202,457,51.414,8.65,Brilon-Th-len,Nordrhein-Westfalen
6265,20040501,20190202,36,52.3613,12.3867,Wusterwitz,Brandenburg
6266,20040901,20190202,112,52.0304,10.9626,Huy-Pabstorf,Sachsen-Anhalt
6272,20041001,20190202,283,50.8426,10.2518,Moorgrund Gr-fen-Nitzendorf,Th-ringen
6273,20040601,20190202,36,52.5075,11.8551,Demker,Sachsen-Anhalt
6275,20040701,20190202,325,48.6705,9.4627,Notzingen,Baden-Wrttemberg
6304,20021001,20061231,550,49.3533,11.5053,Pilsach-Litzlohe,Bayern
6305,20041201,20190202,193,51.2061,10.4978,M-hlhausen-Th-ringen-G-rmar,Th-ringen
6310,20040801,20190202,1,54.1049,13.8239,Karlshagen,Mecklenburg-Vorpommern
6312,20041101,20190202,362,49.5314,10.6418,Markt Erlbach-Mosbach,Bayern
6314,19490201,20190202,308,51.0507,13.3003,Nossen,Sachsen
6336,20051101,20190202,285,50.0132,9.654,Lohr-Main-Halsbach,Bayern
6337,20040801,20190202,59,51.7663,7.5193,L-dinghausen-Brochtrup,Nordrhein-Westfalen
6344,20041201,20190202,168,50.394,8.1423,Runkel-Ennerich,Hessen
6346,20050201,20190202,530,48.207,11.2035,Maisach-Galgen,Bayern
6347,20050301,20190202,304,50.0579,10.2972,Schonungen-Mainberg,Bayern
7075,20050201,20190202,425,48.702,11.8493,Elsendorf-Horneck,Bayern
7099,20041101,20190202,187,52.0111,10.3966,Liebenburg-Othfresen,Niedersachsen
7105,20050601,20190202,721,47.835,12.6548,Siegsdorf-H-ll,Bayern
7106,20060901,20190202,105,52.0714,8.4565,Bielefeld-Deppendorf,Nordrhein-Westfalen
7135,19510101,20041231,565,47.9655,9.6804,Aulendorf-Haslach,Baden-Wrttemberg
7187,20041201,20190202,193,49.7636,9.4063,Freudenberg-Main-Boxtal,Baden-Wrttemberg
7244,19670101,20040930,62,53.1424,13.0319,Neuglobsow (HM),Brandenburg
7298,20050701,20190202,5,54.5268,9.0425,Hattstedt,Schleswig-Holstein
7319,20050301,20190202,435,48.7374,10.7393,Donauw-rth-Osterweiler,Bayern
7321,20050901,20190202,160,51.1507,11.3321,Olbersleben,Th-ringen
7325,20110901,20151231,2650,47.4167,10.9794,Schneefernerhaus,Bayern
7329,20051101,20190202,465,50.5467,12.2863,Treuen,Sachsen
7330,20051001,20190202,159,51.4634,7.978,Arnsberg-Neheim,Nordrhein-Westfalen
7331,20050901,20190202,468,48.6099,10.2674,Hermaringen-Allewind,Baden-Wrttemberg
7341,20050715,20190202,119,50.09,8.7862,Offenbach-Wetterpark,Hessen
7343,20060401,20190202,688,50.6199,13.4816,Deutschneudorf-Br-derwiese,Sachsen
7350,20060801,20190202,588,49.1088,12.8231,Prackenbach-Neuh-usl,Bayern
7351,20050908,20190202,116,53.3175,13.4175,Feldberg-Mecklenburg,Mecklenburg-Vorpommern
7364,20070101,20190202,74,51.682,12.3042,Jeﬂnitz,Sachsen-Anhalt
7367,20071201,20190202,144,51.9643,9.8072,Alfeld,Niedersachsen
7368,20071101,20190202,312,51.0007,10.3621,Eisenach,Th-ringen
7369,20071101,20190202,475,49.1623,10.3662,Feuchtwangen-Heilbronn,Bayern
7370,20061211,20190202,499,49.3909,12.6838,Waldm-nchen,Bayern
7373,20060301,20190202,3,53.5984,6.7024,Borkum-Flugplatz,Niedersachsen
7374,20060301,20190202,46,52.0814,6.941,Ahaus,Nordrhein-Westfalen
7389,20061201,20190202,82,52.7461,13.8427,Heckelberg,Brandenburg
7393,20100101,20190202,116,51.4493,14.2533,Hoyerswerda,Sachsen
7394,20060601,20190202,622,50.0315,11.9745,Wunsiedel-Sch-nbrunn,Bayern
7395,20071201,20190202,350,48.6596,12.5388,Gottfrieding,Bayern
7396,20080501,20190202,743,50.5084,9.2247,Hoherodskopf-Vogelsberg,Hessen
7403,20070401,20190202,672,47.7955,10.0324,Leutkirch-Herlazhofen,Baden-Wrttemberg
7410,20110201,20190202,350,50.7513,9.0224,Neu-Ulrichstein,Hessen
7412,20061001,20190202,340,50.0083,9.4239,Neuh-tten-Spessart,Bayern
7419,20061201,20190202,389,50.661,12.0756,Langenwetzendorf-G-ttendorf,Th-ringen
7420,20070401,20190202,246,51.1044,11.7112,Naumburg-Saale-Kreipitzsch,Sachsen-Anhalt
7424,20061201,20190202,458,47.7724,12.9073,Piding,Bayern
7427,20070901,20190202,17,54.0188,9.9255,Padenstedt (Pony-Park),Schleswig-Holstein
7428,20070501,20190202,397,50.4167,10.8156,Veilsdorf,Th-ringen
7431,20071101,20190202,604,48.013,11.5524,Oberhaching-Laufzorn,Bayern
7432,20070501,20190202,72,52.6423,10.6627,Wittingen-Vorhop,Niedersachsen
13670,20070601,20190202,24,51.5088,6.7018,Duisburg-Baerl,Nordrhein-Westfalen
13674,20070801,20190202,237,49.2942,8.9054,Waibstadt,Baden-Wrttemberg
13675,20071101,20190202,77,52.0818,9.4077,Hameln-Hastenbeck,Niedersachsen
13696,20071201,20190202,60,51.5966,7.4049,Waltrop-Abdinghof,Nordrhein-Westfalen
13700,20080501,20190202,205,51.3329,7.3411,Gevelsberg-Oberbr-king,Nordrhein-Westfalen
13710,20080401,20190202,490,48.5734,12.2576,Landshut-Reithof,Bayern
13711,20071201,20190202,289,50.6819,11.515,Kr-lpa-Rockendorf,Th-ringen
13713,20071101,20190202,380,51.0899,7.629,Meinerzhagen-Redlendorf,Nordrhein-Westfalen
13776,20080301,20101231,85,52.1789,9.9524,Hildesheim-Drispenstedt,Niedersachsen
13777,20080601,20190202,110,52.2467,10.9592,Helmstedt-Emmerstedt,Niedersachsen
13903,20080928,20090831,15,54.0167,8.3167,Bake Zulu,Niedersachsen
13904,20080928,20081230,3,55,6.3333,Nordseeboje 2,Hamburg
13965,20081201,20190202,619,48.2639,8.8134,Balingen-Bronnhaupten,Baden-Wrttemberg
14138,20090914,20151229,73,52.1655,14.1224,Falkenberg (Grenzschichtmessfeld),Brandenburg
14311,19610101,20051231,530,50.15,6.5528,Hersdorf-Weiﬂenseifen,Rheinland-Pfalz
15000,20110401,20190202,231,50.7983,6.0244,Aachen-Orsbach,Nordrhein-Westfalen
15207,20131101,20190202,317,51.2835,9.359,Schauenburg-Elgershausen,Hessen
15444,20140901,20190202,593,48.4418,9.9216,Ulm-M-hringen,Baden-Wrttemberg
15526,18910101,19351231,29,53.5467,9.9716,Hamburg (Deutsche Seewarte),Hamburg
15555,20160501,20190202,816,47.8761,10.5848,Kaufbeuren-Oberbeuren,Bayern
15926,19510101,19551020,370,49.341,12.133,Fronberg (Schwandorf),Bayern
15951,19760401,20040831,280,49.2121,7.5882,Pirmasens (Kl-ranlage),Rheinland-Pfalz
15963,19540101,20041130,40,51.3258,6.5089,St. T-nis,Nordrhein-Westfalen
15965,19690501,19840831,350,50.3102,9.7838,Br-ckenau Bad (Elisabethenhof),Bayern
15979,19480101,19790331,426,49.9311,7.5153,Sargenroth,Rheinland-Pfalz
16085,19600701,19611231,8,53.5874,8.6011,Leherheide,Bremen